
$GPRMC,232155.000,A,3854.7070,N,07728.5584,W,22.81,28.84,181115,,,A*70
$GPGGA,232156.000,3854.7121,N,07728.5545,W,1,07,1.18,97.2,M,-33.4,M,,*61
$GPRMC,232156.000,A,3854.7121,N,07728.5545,W,19.37,29.59,181115,,,A*7F
$GPGGA,232157.000,3854.7162,N,07728.5514,W,1,07,1.18,96.9,M,-33.4,M,,*69
$GPRMC,232157.000,A,3854.7162,N,07728.5514,W,15.23,28.85,181115,,,A*74
$GPGGA,232158.000,3854.7193,N,07728.5492,W,1,07,1.18,96.1,M,-33.4,M,,*6F
$GPRMC,232158.000,A,3854.7193,N,07728.5492,W,11.25,29.13,181115,,,A*76
$GPGGA,232159.000,3854.7214,N,07728.5478,W,1,07,1.27,95.1,M,-33.4,M,,*69
$GPRMC,232159.000,A,3854.7214,N,07728.5478,W,6.31,28.46,181115,,,A*4D
$GPGGA,232200.000,3854.7225,N,07728.5470,W,1,07,1.27,94.3,M,-33.4,M,,*6F
$GPRMC,232200.000,A,3854.7225,N,07728.5470,W,4.27,31.76,181115,,,A*46
$GPGGA,232201.000,3854.7239,N,07728.5454,W,1,07,1.27,94.7,M,-33.4,M,,*61
$GPRMC,232201.000,A,3854.7239,N,07728.5454,W,9.12,43.70,181115,,,A*44
$GPGGA,232202.000,3854.7259,N,07728.5417,W,1,07,1.18,95.1,M,-33.4,M,,*68
$GPRMC,232202.000,A,3854.7259,N,07728.5417,W,15.24,58.48,181115,,,A*7F
$GPGGA,232203.000,3854.7269,N,07728.5360,W,1,07,1.27,95.9,M,-33.4,M,,*69
$GPRMC,232203.000,A,3854.7269,N,07728.5360,W,16.73,90.88,181115,,,A*73
$GPGGA,232204.000,3854.7255,N,07728.5297,W,1,07,1.27,94.9,M,-33.4,M,,*69
$GPRMC,232204.000,A,3854.7255,N,07728.5297,W,20.95,111.81,181115,,,A*4E
$GPGGA,232205.000,3854.7227,N,07728.5221,W,1,07,1.27,93.6,M,-33.4,M,,*68
$GPRMC,232205.000,A,3854.7227,N,07728.5221,W,25.43,114.00,181115,,,A*45
$GPGGA,232206.000,3854.7194,N,07728.5132,W,1,07,1.27,93.0,M,-33.4,M,,*67
$GPRMC,232206.000,A,3854.7194,N,07728.5132,W,28.18,114.72,181115,,,A*4A
$GPGGA,232207.000,3854.7157,N,07728.5031,W,1,07,1.27,93.4,M,-33.4,M,,*6F
$GPRMC,232207.000,A,3854.7157,N,07728.5031,W,30.62,114.12,181115,,,A*44
$GPGGA,232208.000,3854.7119,N,07728.4925,W,1,07,1.27,94.1,M,-33.4,M,,*65
$GPRMC,232208.000,A,3854.7119,N,07728.4925,W,32.83,114.38,181115,,,A*49
$GPGGA,232209.000,3854.7077,N,07728.4814,W,1,07,1.18,94.2,M,-33.4,M,,*61
$GPRMC,232209.000,A,3854.7077,N,07728.4814,W,34.25,115.10,181115,,,A*43
$GPGGA,232210.000,3854.7034,N,07728.4702,W,1,07,1.27,94.4,M,-33.4,M,,*6C
$GPRMC,232210.000,A,3854.7034,N,07728.4702,W,34.31,116.13,181115,,,A*41
$GPGGA,232211.000,3854.6989,N,07728.4590,W,1,07,1.18,94.5,M,-33.4,M,,*67
$GPRMC,232211.000,A,3854.6989,N,07728.4590,W,34.55,116.65,181115,,,A*44
$GPGGA,232212.000,3854.6944,N,07728.4479,W,1,07,1.18,94.5,M,-33.4,M,,*63
$GPRMC,232212.000,A,3854.6944,N,07728.4479,W,34.57,117.16,181115,,,A*47
$GPGGA,232213.000,3854.6898,N,07728.4369,W,1,07,1.18,94.4,M,-33.4,M,,*65
$GPRMC,232213.000,A,3854.6898,N,07728.4369,W,34.53,117.86,181115,,,A*4D
$GPGGA,232214.000,3854.6851,N,07728.4259,W,1,07,1.18,94.6,M,-33.4,M,,*67
$GPRMC,232214.000,A,3854.6851,N,07728.4259,W,34.47,117.99,181115,,,A*46
$GPGGA,232215.000,3854.6805,N,07728.4150,W,1,07,1.18,94.7,M,-33.4,M,,*6C
$GPRMC,232215.000,A,3854.6805,N,07728.4150,W,34.27,117.42,181115,,,A*4C
$GPGGA,232216.000,3854.6760,N,07728.4042,W,1,07,1.19,94.4,M,-33.4,M,,*63
$GPRMC,232216.000,A,3854.6760,N,07728.4042,W,34.37,117.10,181115,,,A*47
$GPGGA,232217.000,3854.6717,N,07728.3936,W,1,07,1.18,94.1,M,-33.4,M,,*6B
$GPRMC,232217.000,A,3854.6717,N,07728.3936,W,32.87,116.96,181115,,,A*49
$GPGGA,232218.000,3854.6674,N,07728.3833,W,1,07,1.18,93.7,M,-33.4,M,,*65
$GPRMC,232218.000,A,3854.6674,N,07728.3833,W,32.23,117.00,181115,,,A*46
$GPGGA,232219.000,3854.6633,N,07728.3731,W,1,07,1.19,93.6,M,-33.4,M,,*6A
$GPRMC,232219.000,A,3854.6633,N,07728.3731,W,31.53,116.82,181115,,,A*46
$GPGGA,232220.000,3854.6593,N,07728.3632,W,1,07,1.18,93.6,M,-33.4,M,,*6A
$GPRMC,232220.000,A,3854.6593,N,07728.3632,W,30.59,116.87,181115,,,A*49
$GPGGA,232221.000,3854.6554,N,07728.3536,W,1,07,1.18,93.6,M,-33.4,M,,*67
$GPRMC,232221.000,A,3854.6554,N,07728.3536,W,29.89,116.90,181115,,,A*47
$GPGGA,232222.000,3854.6516,N,07728.3444,W,1,07,1.18,93.7,M,-33.4,M,,*67
$GPRMC,232222.000,A,3854.6516,N,07728.3444,W,28.31,117.63,181115,,,A*49
$GPGGA,232223.000,3854.6480,N,07728.3355,W,1,07,1.18,93.6,M,-33.4,M,,*6E
$GPRMC,232223.000,A,3854.6480,N,07728.3355,W,28.30,117.66,181115,,,A*45
$GPGGA,232224.000,3854.6445,N,07728.3267,W,1,07,1.18,93.7,M,-33.4,M,,*61
$GPRMC,232224.000,A,3854.6445,N,07728.3267,W,27.28,117.05,181115,,,A*48
$GPGGA,232225.000,3854.6410,N,07728.3182,W,1,07,1.18,93.5,M,-33.4,M,,*6A
$GPRMC,232225.000,A,3854.6410,N,07728.3182,W,26.60,117.07,181115,,,A*4E
$GPGGA,232226.000,3854.6378,N,07728.3100,W,1,07,1.18,93.3,M,-33.4,M,,*6C
$GPRMC,232226.000,A,3854.6378,N,07728.3100,W,24.85,116.99,181115,,,A*41
$GPGGA,232227.000,3854.6347,N,07728.3023,W,1,07,1.18,93.1,M,-33.4,M,,*63
$GPRMC,232227.000,A,3854.6347,N,07728.3023,W,24.11,117.46,181115,,,A*42
$GPGGA,232228.000,3854.6317,N,07728.2950,W,1,07,1.18,93.1,M,-33.4,M,,*65
$GPRMC,232228.000,A,3854.6317,N,07728.2950,W,23.26,118.55,181115,,,A*4A
$GPGGA,232229.000,3854.6292,N,07728.2885,W,1,07,1.18,93.1,M,-33.4,M,,*61
$GPRMC,232229.000,A,3854.6292,N,07728.2885,W,19.58,118.32,181115,,,A*4F
$GPGGA,232230.000,3854.6270,N,07728.2829,W,1,07,1.19,93.1,M,-33.4,M,,*62
$GPRMC,232230.000,A,3854.6270,N,07728.2829,W,16.79,117.16,181115,,,A*48
$GPGGA,232231.000,3854.6252,N,07728.2783,W,1,07,1.19,93.1,M,-33.4,M,,*6C
$GPRMC,232231.000,A,3854.6252,N,07728.2783,W,14.50,117.12,181115,,,A*4B
$GPGGA,232232.000,3854.6230,N,07728.2735,W,1,07,1.18,92.8,M,-33.4,M,,*6F
$GPRMC,232232.000,A,3854.6230,N,07728.2735,W,15.22,118.57,181115,,,A*4B
$GPGGA,232233.000,3854.6208,N,07728.2684,W,1,07,1.18,92.3,M,-33.4,M,,*65
$GPRMC,232233.000,A,3854.6208,N,07728.2684,W,17.23,117.49,181115,,,A*49
$GPGGA,232234.000,3854.6184,N,07728.2628,W,1,07,1.27,92.0,M,-33.4,M,,*6C
$GPRMC,232234.000,A,3854.6184,N,07728.2628,W,18.63,117.47,181115,,,A*4A
$GPGGA,232235.000,3854.6159,N,07728.2569,W,1,07,1.27,91.9,M,-33.4,M,,*61
$GPRMC,232235.000,A,3854.6159,N,07728.2569,W,18.32,117.39,181115,,,A*40
$GPGGA,232236.000,3854.6135,N,07728.2511,W,1,07,1.19,92.2,M,-33.4,M,,*62
$GPRMC,232236.000,A,3854.6135,N,07728.2511,W,18.35,117.75,181115,,,A*49
$GPGGA,232237.000,3854.6111,N,07728.2451,W,1,07,1.27,92.8,M,-33.4,M,,*67
$GPRMC,232237.000,A,3854.6111,N,07728.2451,W,19.48,117.83,181115,,,A*49
$GPGGA,232238.000,3854.6084,N,07728.2386,W,1,07,1.27,93.3,M,-33.4,M,,*62
$GPRMC,232238.000,A,3854.6084,N,07728.2386,W,21.57,117.07,181115,,,A*4F
$GPGGA,232239.000,3854.6056,N,07728.2313,W,1,07,1.27,93.5,M,-33.4,M,,*66
$GPRMC,232239.000,A,3854.6056,N,07728.2313,W,23.78,116.83,181115,,,A*4F
$GPGGA,232240.000,3854.6023,N,07728.2233,W,1,07,1.19,93.2,M,-33.4,M,,*63
$GPRMC,232240.000,A,3854.6023,N,07728.2233,W,26.30,117.31,181115,,,A*41
$GPGGA,232241.000,3854.5988,N,07728.2147,W,1,07,1.27,92.6,M,-33.4,M,,*61
$GPRMC,232241.000,A,3854.5988,N,07728.2147,W,28.53,117.42,181115,,,A*44
$GPGGA,232242.000,3854.5950,N,07728.2055,W,1,07,1.27,92.1,M,-33.4,M,,*62
$GPRMC,232242.000,A,3854.5950,N,07728.2055,W,30.47,117.55,181115,,,A*4A
$GPGGA,232243.000,3854.5910,N,07728.1957,W,1,07,1.27,91.8,M,-33.4,M,,*65
$GPRMC,232243.000,A,3854.5910,N,07728.1957,W,31.76,116.97,181115,,,A*4B
$GPGGA,232244.000,3854.5868,N,07728.1854,W,1,07,1.27,91.8,M,-33.4,M,,*6E
$GPRMC,232244.000,A,3854.5868,N,07728.1854,W,33.15,116.92,181115,,,A*42
$GPGGA,232245.000,3854.5826,N,07728.1747,W,1,07,1.19,92.1,M,-33.4,M,,*6F
$GPRMC,232245.000,A,3854.5826,N,07728.1747,W,33.93,117.33,181115,,,A*40
$GPGGA,232246.000,3854.5782,N,07728.1639,W,1,07,1.19,92.7,M,-33.4,M,,*63
$GPRMC,232246.000,A,3854.5782,N,07728.1639,W,34.51,117.37,181115,,,A*47
$GPGGA,232247.000,3854.5738,N,07728.1528,W,1,07,1.27,92.9,M,-33.4,M,,*63
$GPRMC,232247.000,A,3854.5738,N,07728.1528,W,35.29,117.38,181115,,,A*45
$GPGGA,232248.000,3854.5691,N,07728.1415,W,1,07,1.27,92.8,M,-33.4,M,,*60
$GPRMC,232248.000,A,3854.5691,N,07728.1415,W,36.51,117.44,181115,,,A*40
$GPGGA,232249.000,3854.5644,N,07728.1298,W,1,07,1.27,92.4,M,-33.4,M,,*66
$GPRMC,232249.000,A,3854.5644,N,07728.1298,W,37.09,117.39,181115,,,A*4C
$GPGGA,232250.000,3854.5595,N,07728.1181,W,1,07,1.27,91.6,M,-33.4,M,,*6B
$GPRMC,232250.000,A,3854.5595,N,07728.1181,W,37.66,117.35,181115,,,A*45
$GPGGA,232251.000,3854.5547,N,07728.1062,W,1,07,1.27,91.0,M,-33.4,M,,*6F
$GPRMC,232251.000,A,3854.5547,N,07728.1062,W,38.05,117.30,181115,,,A*48
$GPGGA,232252.000,3854.5497,N,07728.0943,W,1,07,1.27,90.4,M,-33.4,M,,*6E
$GPRMC,232252.000,A,3854.5497,N,07728.0943,W,38.06,117.44,181115,,,A*4C
$GPGGA,232253.000,3854.5448,N,07728.0821,W,1,07,1.27,90.1,M,-33.4,M,,*6D
$GPRMC,232253.000,A,3854.5448,N,07728.0821,W,38.50,117.29,181115,,,A*42
$GPGGA,232254.000,3854.5398,N,07728.0697,W,1,07,1.27,90.4,M,-33.4,M,,*66
$GPRMC,232254.000,A,3854.5398,N,07728.0697,W,39.25,117.18,181115,,,A*4D
$GPGGA,232255.000,3854.5347,N,07728.0572,W,1,07,1.27,90.8,M,-33.4,M,,*61
$GPRMC,232255.000,A,3854.5347,N,07728.0572,W,39.67,117.36,181115,,,A*4C
$GPGGA,232256.000,3854.5295,N,07728.0446,W,1,07,1.27,91.5,M,-33.4,M,,*66
$GPRMC,232256.000,A,3854.5295,N,07728.0446,W,39.74,117.44,181115,,,A*40
$GPGGA,232257.000,3854.5244,N,07728.0320,W,1,07,1.27,91.9,M,-33.4,M,,*60
$GPRMC,232257.000,A,3854.5244,N,07728.0320,W,39.76,117.32,181115,,,A*49
$GPGGA,232258.000,3854.5193,N,07728.0193,W,1,07,1.27,92.2,M,-33.4,M,,*64
$GPRMC,232258.000,A,3854.5193,N,07728.0193,W,39.92,117.37,181115,,,A*4A
$GPGGA,232259.000,3854.5142,N,07728.0067,W,1,07,1.27,92.1,M,-33.4,M,,*60
$GPRMC,232259.000,A,3854.5142,N,07728.0067,W,39.89,117.47,181115,,,A*40
$GPGGA,232300.000,3854.5091,N,07727.9941,W,1,07,1.27,91.7,M,-33.4,M,,*6C
$GPRMC,232300.000,A,3854.5091,N,07727.9941,W,40.27,117.37,181115,,,A*44
$GPGGA,232301.000,3854.5039,N,07727.9815,W,1,07,1.27,90.9,M,-33.4,M,,*60
$GPRMC,232301.000,A,3854.5039,N,07727.9815,W,40.16,117.38,181115,,,A*4A
$GPGGA,232302.000,3854.4986,N,07727.9695,W,1,08,0.97,87.9,M,-33.4,M,,*6A
$GPRMC,232302.000,A,3854.4986,N,07727.9695,W,40.26,117.70,181115,,,A*4C
$GPGGA,232303.000,3854.4933,N,07727.9569,W,1,08,0.97,86.7,M,-33.4,M,,*6A
$GPRMC,232303.000,A,3854.4933,N,07727.9569,W,40.35,117.49,181115,,,A*4B
$GPGGA,232304.000,3854.4880,N,07727.9444,W,1,08,0.97,85.6,M,-33.4,M,,*68
$GPRMC,232304.000,A,3854.4880,N,07727.9444,W,40.67,117.70,181115,,,A*46
$GPGGA,232305.000,3854.4827,N,07727.9318,W,1,08,0.97,84.7,M,-33.4,M,,*6A
$GPRMC,232305.000,A,3854.4827,N,07727.9318,W,40.72,117.35,181115,,,A*41
$GPGGA,232306.000,3854.4775,N,07727.9190,W,1,08,0.99,84.3,M,-33.4,M,,*69
$GPRMC,232306.000,A,3854.4775,N,07727.9190,W,40.53,117.51,181115,,,A*49
$GPGGA,232307.000,3854.4722,N,07727.9067,W,1,08,0.97,83.2,M,-33.4,M,,*6B
$GPRMC,232307.000,A,3854.4722,N,07727.9067,W,40.56,117.44,181115,,,A*42
$GPGGA,232308.000,3854.4669,N,07727.8942,W,1,08,0.99,81.9,M,-33.4,M,,*62
$GPRMC,232308.000,A,3854.4669,N,07727.8942,W,41.16,117.34,181115,,,A*4E
$GPGGA,232309.000,3854.4616,N,07727.8813,W,1,08,0.99,80.8,M,-33.4,M,,*6E
$GPRMC,232309.000,A,3854.4616,N,07727.8813,W,41.65,117.39,181115,,,A*4B
$GPGGA,232310.000,3854.4562,N,07727.8683,W,1,08,0.99,79.8,M,-33.4,M,,*67
$GPRMC,232310.000,A,3854.4562,N,07727.8683,W,42.05,117.49,181115,,,A*46
$GPGGA,232311.000,3854.4507,N,07727.8552,W,1,08,0.99,78.8,M,-33.4,M,,*6B
$GPRMC,232311.000,A,3854.4507,N,07727.8552,W,42.47,117.43,181115,,,A*47
$GPGGA,232312.000,3854.4453,N,07727.8418,W,1,08,0.99,78.4,M,-33.4,M,,*6B
$GPRMC,232312.000,A,3854.4453,N,07727.8418,W,42.20,117.62,181115,,,A*49
$GPGGA,232313.000,3854.4398,N,07727.8287,W,1,08,0.99,77.7,M,-33.4,M,,*66
$GPRMC,232313.000,A,3854.4398,N,07727.8287,W,41.92,117.51,181115,,,A*42
$GPGGA,232314.000,3854.4344,N,07727.8155,W,1,08,0.99,77.2,M,-33.4,M,,*69
$GPRMC,232314.000,A,3854.4344,N,07727.8155,W,41.95,117.21,181115,,,A*48
$GPGGA,232315.000,3854.4290,N,07727.8023,W,1,08,0.99,76.8,M,-33.4,M,,*6B
$GPRMC,232315.000,A,3854.4290,N,07727.8023,W,41.74,117.07,181115,,,A*4A
$GPGGA,232316.000,3854.4238,N,07727.7890,W,1,08,0.97,76.9,M,-33.4,M,,*6A
$GPRMC,232316.000,A,3854.4238,N,07727.7890,W,42.01,116.34,181115,,,A*44
$GPGGA,232317.000,3854.4187,N,07727.7755,W,1,08,0.97,77.1,M,-33.4,M,,*63
$GPRMC,232317.000,A,3854.4187,N,07727.7755,W,42.21,114.81,181115,,,A*4A
$GPGGA,232318.000,3854.4138,N,07727.7618,W,1,08,0.97,77.2,M,-33.4,M,,*63
$GPRMC,232318.000,A,3854.4138,N,07727.7618,W,42.23,114.73,181115,,,A*46
$GPGGA,232319.000,3854.4087,N,07727.7482,W,1,08,0.97,77.2,M,-33.4,M,,*66
$GPRMC,232319.000,A,3854.4087,N,07727.7482,W,42.26,116.06,181115,,,A*46
$GPGGA,232320.000,3854.4034,N,07727.7348,W,1,08,0.97,76.9,M,-33.4,M,,*6F
$GPRMC,232320.000,A,3854.4034,N,07727.7348,W,42.29,117.05,181115,,,A*48
$GPGGA,232321.000,3854.3980,N,07727.7216,W,1,08,0.97,76.7,M,-33.4,M,,*6B
$GPRMC,232321.000,A,3854.3980,N,07727.7216,W,42.35,117.40,181115,,,A*4E
$GPGGA,232322.000,3854.3927,N,07727.7085,W,1,08,0.97,76.4,M,-33.4,M,,*6E
$GPRMC,232322.000,A,3854.3927,N,07727.7085,W,41.25,117.25,181115,,,A*49
$GPGGA,232323.000,3854.3874,N,07727.6956,W,1,08,0.99,76.4,M,-33.4,M,,*60
$GPRMC,232323.000,A,3854.3874,N,07727.6956,W,40.51,117.21,181115,,,A*4F
$GPGGA,232324.000,3854.3822,N,07727.6827,W,1,08,0.97,76.4,M,-33.4,M,,*6D
$GPRMC,232324.000,A,3854.3822,N,07727.6827,W,40.67,117.23,181115,,,A*4B
$GPGGA,232325.000,3854.3770,N,07727.6699,W,1,08,0.97,76.4,M,-33.4,M,,*6F
$GPRMC,232325.000,A,3854.3770,N,07727.6699,W,41.10,117.22,181115,,,A*49
$GPGGA,232326.000,3854.3717,N,07727.6569,W,1,08,0.97,76.5,M,-33.4,M,,*60
$GPRMC,232326.000,A,3854.3717,N,07727.6569,W,41.07,117.39,181115,,,A*4B
$GPGGA,232327.000,3854.3665,N,07727.6441,W,1,08,0.97,76.8,M,-33.4,M,,*63
$GPRMC,232327.000,A,3854.3665,N,07727.6441,W,40.01,117.34,181115,,,A*4F
$GPGGA,232328.000,3854.3614,N,07727.6316,W,1,08,0.99,77.1,M,-33.4,M,,*69
$GPRMC,232328.000,A,3854.3614,N,07727.6316,W,40.40,117.29,181115,,,A*4A
$GPGGA,232329.000,3854.3565,N,07727.6194,W,1,08,0.99,77.5,M,-33.4,M,,*61
$GPRMC,232329.000,A,3854.3565,N,07727.6194,W,37.95,117.30,181115,,,A*46
$GPGGA,232330.000,3854.3517,N,07727.6076,W,1,08,0.99,77.9,M,-33.4,M,,*6D
$GPRMC,232330.000,A,3854.3517,N,07727.6076,W,36.94,117.06,181115,,,A*43
$GPGGA,232331.000,3854.3471,N,07727.5960,W,1,08,0.99,78.2,M,-33.4,M,,*64
$GPRMC,232331.000,A,3854.3471,N,07727.5960,W,35.96,116.80,181115,,,A*40
$GPGGA,232332.000,3854.3427,N,07727.5848,W,1,08,0.99,78.4,M,-33.4,M,,*69
$GPRMC,232332.000,A,3854.3427,N,07727.5848,W,35.00,116.75,181115,,,A*4E
$GPGGA,232333.000,3854.3383,N,07727.5739,W,1,08,0.99,78.3,M,-33.4,M,,*6F
$GPRMC,232333.000,A,3854.3383,N,07727.5739,W,34.03,116.87,181115,,,A*40
$GPGGA,232334.000,3854.3342,N,07727.5633,W,1,08,0.99,78.3,M,-33.4,M,,*6E
$GPRMC,232334.000,A,3854.3342,N,07727.5633,W,32.77,116.78,181115,,,A*44
$GPGGA,232335.000,3854.3303,N,07727.5533,W,1,08,0.99,78.2,M,-33.4,M,,*68
$GPRMC,232335.000,A,3854.3303,N,07727.5533,W,30.04,116.62,181115,,,A*4E
$GPGGA,232336.000,3854.3268,N,07727.5443,W,1,08,0.99,78.0,M,-33.4,M,,*63
$GPRMC,232336.000,A,3854.3268,N,07727.5443,W,26.59,116.38,181115,,,A*47
$GPGGA,232337.000,3854.3237,N,07727.5363,W,1,08,0.99,77.9,M,-33.4,M,,*6B
$GPRMC,232337.000,A,3854.3237,N,07727.5363,W,23.95,116.40,181115,,,A*43
$GPGGA,232338.000,3854.3208,N,07727.5290,W,1,08,0.99,77.7,M,-33.4,M,,*6B
$GPRMC,232338.000,A,3854.3208,N,07727.5290,W,22.34,116.34,181115,,,A*44
$GPGGA,232339.000,3854.3182,N,07727.5223,W,1,08,0.99,77.6,M,-33.4,M,,*62
$GPRMC,232339.000,A,3854.3182,N,07727.5223,W,19.83,116.33,181115,,,A*4F
$GPGGA,232340.000,3854.3160,N,07727.5165,W,1,08,0.99,77.6,M,-33.4,M,,*61
$GPRMC,232340.000,A,3854.3160,N,07727.5165,W,17.15,116.30,181115,,,A*4E
$GPGGA,232341.000,3854.3140,N,07727.5114,W,1,08,0.99,77.7,M,-33.4,M,,*65
$GPRMC,232341.000,A,3854.3140,N,07727.5114,W,15.31,116.35,181115,,,A*4A
$GPGGA,232342.000,3854.3125,N,07727.5077,W,1,08,0.99,77.8,M,-33.4,M,,*6E
$GPRMC,232342.000,A,3854.3125,N,07727.5077,W,12.38,116.55,181115,,,A*46
$GPGGA,232343.000,3854.3113,N,07727.5049,W,1,08,0.99,78.0,M,-33.4,M,,*60
$GPRMC,232343.000,A,3854.3113,N,07727.5049,W,8.70,116.47,181115,,,A*7B
$GPGGA,232344.000,3854.3106,N,07727.5033,W,1,08,0.99,78.2,M,-33.4,M,,*6C
$GPRMC,232344.000,A,3854.3106,N,07727.5033,W,5.23,117.05,181115,,,A*79
$GPGGA,232345.000,3854.3101,N,07727.5024,W,1,08,0.99,78.5,M,-33.4,M,,*6B
$GPRMC,232345.000,A,3854.3101,N,07727.5024,W,3.14,116.37,181115,,,A*7B
$GPGGA,232346.000,3854.3099,N,07727.5020,W,1,08,0.97,78.8,M,-33.4,M,,*6F
$GPRMC,232346.000,A,3854.3099,N,07727.5020,W,1.79,116.37,181115,,,A*75
$GPGGA,232347.000,3854.3098,N,07727.5020,W,1,08,0.97,78.9,M,-33.4,M,,*6E
$GPRMC,232347.000,A,3854.3098,N,07727.5020,W,0.08,116.37,181115,,,A*72
$GPGGA,232348.000,3854.3099,N,07727.5021,W,1,08,0.97,79.0,M,-33.4,M,,*69
$GPRMC,232348.000,A,3854.3099,N,07727.5021,W,0.01,116.37,181115,,,A*74
$GPGGA,232349.000,3854.3100,N,07727.5023,W,1,08,0.97,78.9,M,-33.4,M,,*63
$GPRMC,232349.000,A,3854.3100,N,07727.5023,W,0.00,116.37,181115,,,A*77
$GPGGA,232350.000,3854.3100,N,07727.5023,W,1,08,0.97,78.9,M,-33.4,M,,*6B
$GPRMC,232350.000,A,3854.3100,N,07727.5023,W,0.00,116.37,181115,,,A*7F
$GPGGA,232351.000,3854.3100,N,07727.5023,W,1,08,0.97,78.9,M,-33.4,M,,*6A
$GPRMC,232351.000,A,3854.3100,N,07727.5023,W,0.00,116.37,181115,,,A*7E
$GPGGA,232352.000,3854.3100,N,07727.5023,W,1,08,0.97,78.9,M,-33.4,M,,*69
$GPRMC,232352.000,A,3854.3100,N,07727.5023,W,0.00,116.37,181115,,,A*7D
$GPGGA,232353.000,3854.3100,N,07727.5023,W,1,08,0.97,78.9,M,-33.4,M,,*68
$GPRMC,232353.000,A,3854.3100,N,07727.5023,W,0.00,116.37,181115,,,A*7C
$GPGGA,232354.000,3854.3100,N,07727.5023,W,1,08,0.97,78.9,M,-33.4,M,,*6F
$GPRMC,232354.000,A,3854.3100,N,07727.5023,W,0.00,116.37,181115,,,A*7B
$GPGGA,232355.000,3854.3100,N,07727.5023,W,1,08,0.97,78.9,M,-33.4,M,,*6E
$GPRMC,232355.000,A,3854.3100,N,07727.5023,W,0.00,116.37,181115,,,A*7A
$GPGGA,232356.000,3854.3100,N,07727.5023,W,1,08,0.97,78.9,M,-33.4,M,,*6D
$GPRMC,232356.000,A,3854.3100,N,07727.5023,W,0.00,116.37,181115,,,A*79
$GPGGA,232357.000,3854.3100,N,07727.5023,W,1,08,0.97,78.9,M,-33.4,M,,*6C
$GPRMC,232357.000,A,3854.3100,N,07727.5023,W,0.00,116.37,181115,,,A*78
$GPGGA,232358.000,3854.3100,N,07727.5024,W,1,08,0.99,78.9,M,-33.4,M,,*6A
$GPRMC,232358.000,A,3854.3100,N,07727.5024,W,0.00,116.37,181115,,,A*70
$GPGGA,232359.000,3854.3100,N,07727.5024,W,1,08,0.97,78.9,M,-33.4,M,,*65
$GPRMC,232359.000,A,3854.3100,N,07727.5024,W,0.00,116.37,181115,,,A*71
$GPGGA,232400.000,3854.3100,N,07727.5024,W,1,08,0.97,78.9,M,-33.4,M,,*6E
$GPRMC,232400.000,A,3854.3100,N,07727.5024,W,0.00,116.37,181115,,,A*7A
$GPGGA,232401.000,3854.3100,N,07727.5024,W,1,08,0.97,79.0,M,-33.4,M,,*67
$GPRMC,232401.000,A,3854.3100,N,07727.5024,W,0.00,116.37,181115,,,A*7B
$GPGGA,232402.000,3854.3100,N,07727.5024,W,1,08,0.97,79.0,M,-33.4,M,,*64
$GPRMC,232402.000,A,3854.3100,N,07727.5024,W,0.03,116.37,181115,,,A*7B
$GPGGA,232403.000,3854.3100,N,07727.5023,W,1,08,0.97,79.0,M,-33.4,M,,*62
$GPRMC,232403.000,A,3854.3100,N,07727.5023,W,1.24,116.37,181115,,,A*79
$GPGGA,232404.000,3854.3098,N,07727.5019,W,1,08,0.97,79.0,M,-33.4,M,,*6C
$GPRMC,232404.000,A,3854.3098,N,07727.5019,W,1.75,116.37,181115,,,A*73
$GPGGA,232405.000,3854.3096,N,07727.5013,W,1,08,0.97,79.0,M,-33.4,M,,*69
$GPRMC,232405.000,A,3854.3096,N,07727.5013,W,4.55,117.10,181115,,,A*75
$GPGGA,232406.000,3854.3087,N,07727.4990,W,1,08,0.99,79.1,M,-33.4,M,,*66
$GPRMC,232406.000,A,3854.3087,N,07727.4990,W,10.19,116.67,181115,,,A*49
$GPGGA,232407.000,3854.3071,N,07727.4952,W,1,08,0.99,79.3,M,-33.4,M,,*62
$GPRMC,232407.000,A,3854.3071,N,07727.4952,W,13.83,116.21,181115,,,A*4D
$GPGGA,232408.000,3854.3053,N,07727.4902,W,1,08,0.99,79.5,M,-33.4,M,,*6E
$GPRMC,232408.000,A,3854.3053,N,07727.4902,W,16.94,116.17,181115,,,A*41
$GPGGA,232409.000,3854.3030,N,07727.4844,W,1,08,0.97,79.7,M,-33.4,M,,*65
$GPRMC,232409.000,A,3854.3030,N,07727.4844,W,19.17,116.43,181115,,,A*43
$GPGGA,232410.000,3854.3005,N,07727.4780,W,1,08,0.97,79.8,M,-33.4,M,,*63
$GPRMC,232410.000,A,3854.3005,N,07727.4780,W,20.61,116.67,181115,,,A*47
$GPGGA,232411.000,3854.2979,N,07727.4710,W,1,08,0.97,79.8,M,-33.4,M,,*68
$GPRMC,232411.000,A,3854.2979,N,07727.4710,W,22.63,116.26,181115,,,A*49
$GPGGA,232412.000,3854.2950,N,07727.4635,W,1,08,0.99,79.9,M,-33.4,M,,*69
$GPRMC,232412.000,A,3854.2950,N,07727.4635,W,23.75,116.29,181115,,,A*4E
$GPGGA,232413.000,3854.2920,N,07727.4558,W,1,08,0.97,79.9,M,-33.4,M,,*69
$GPRMC,232413.000,A,3854.2920,N,07727.4558,W,23.81,116.12,181115,,,A*43
$GPGGA,232414.000,3854.2891,N,07727.4481,W,1,08,0.97,79.9,M,-33.4,M,,*60
$GPRMC,232414.000,A,3854.2891,N,07727.4481,W,23.19,116.35,181115,,,A*4E
$GPGGA,232415.000,3854.2862,N,07727.4406,W,1,08,0.99,79.9,M,-33.4,M,,*6C
$GPRMC,232415.000,A,3854.2862,N,07727.4406,W,22.99,116.55,181115,,,A*43
$GPGGA,232416.000,3854.2834,N,07727.4334,W,1,08,0.97,79.7,M,-33.4,M,,*6A
$GPRMC,232416.000,A,3854.2834,N,07727.4334,W,22.00,116.70,181115,,,A*42
$GPGGA,232417.000,3854.2807,N,07727.4264,W,1,08,0.99,79.6,M,-33.4,M,,*60
$GPRMC,232417.000,A,3854.2807,N,07727.4264,W,21.56,116.62,181115,,,A*44
$GPGGA,232418.000,3854.2779,N,07727.4194,W,1,08,0.99,79.5,M,-33.4,M,,*66
$GPRMC,232418.000,A,3854.2779,N,07727.4194,W,22.16,116.77,181115,,,A*42
$GPGGA,232419.000,3854.2752,N,07727.4123,W,1,08,0.99,79.4,M,-33.4,M,,*63
$GPRMC,232419.000,A,3854.2752,N,07727.4123,W,21.56,116.58,181115,,,A*4C
$GPGGA,232420.000,3854.2724,N,07727.4054,W,1,08,0.99,79.3,M,-33.4,M,,*6E
$GPRMC,232420.000,A,3854.2724,N,07727.4054,W,22.42,116.61,181115,,,A*4A
$GPGGA,232421.000,3854.2694,N,07727.3979,W,1,08,0.99,79.3,M,-33.4,M,,*64
$GPRMC,232421.000,A,3854.2694,N,07727.3979,W,24.49,116.73,181115,,,A*4E
$GPGGA,232422.000,3854.2661,N,07727.3897,W,1,08,0.99,79.2,M,-33.4,M,,*6D
$GPRMC,232422.000,A,3854.2661,N,07727.3897,W,26.62,116.67,181115,,,A*48
$GPGGA,232423.000,3854.2627,N,07727.3810,W,1,08,0.97,79.3,M,-33.4,M,,*6E
$GPRMC,232423.000,A,3854.2627,N,07727.3810,W,27.58,116.56,181115,,,A*4E
$GPGGA,232424.000,3854.2591,N,07727.3719,W,1,08,0.97,79.4,M,-33.4,M,,*66
$GPRMC,232424.000,A,3854.2591,N,07727.3719,W,29.38,116.69,181115,,,A*45
$GPGGA,232425.000,3854.2552,N,07727.3622,W,1,08,0.97,79.5,M,-33.4,M,,*60
$GPRMC,232425.000,A,3854.2552,N,07727.3622,W,31.41,117.06,181115,,,A*4D
$GPGGA,232426.000,3854.2510,N,07727.3520,W,1,08,0.97,79.6,M,-33.4,M,,*67
$GPRMC,232426.000,A,3854.2510,N,07727.3520,W,32.65,117.51,181115,,,A*4E
$GPGGA,232427.000,3854.2467,N,07727.3417,W,1,08,0.99,79.6,M,-33.4,M,,*6C
$GPRMC,232427.000,A,3854.2467,N,07727.3417,W,32.40,117.79,181115,,,A*46
$GPGGA,232428.000,3854.2424,N,07727.3314,W,1,08,0.99,79.7,M,-33.4,M,,*61
$GPRMC,232428.000,A,3854.2424,N,07727.3314,W,33.33,117.87,181115,,,A*4E
$GPGGA,232429.000,3854.2379,N,07727.3209,W,1,08,0.99,79.8,M,-33.4,M,,*6D
$GPRMC,232429.000,A,3854.2379,N,07727.3209,W,33.63,119.32,181115,,,A*48
$GPGGA,232430.000,3854.2331,N,07727.3104,W,1,08,0.99,79.8,M,-33.4,M,,*67
$GPRMC,232430.000,A,3854.2331,N,07727.3104,W,34.73,120.86,181115,,,A*41
$GPGGA,232431.000,3854.2279,N,07727.2995,W,1,08,0.99,79.9,M,-33.4,M,,*6B
$GPRMC,232431.000,A,3854.2279,N,07727.2995,W,36.53,119.96,181115,,,A*47
$GPGGA,232432.000,3854.2228,N,07727.2880,W,1,08,0.99,80.0,M,-33.4,M,,*66
$GPRMC,232432.000,A,3854.2228,N,07727.2880,W,37.14,118.63,181115,,,A*4C
$GPGGA,232433.000,3854.2179,N,07727.2763,W,1,08,0.99,80.0,M,-33.4,M,,*62
$GPRMC,232433.000,A,3854.2179,N,07727.2763,W,37.20,117.58,181115,,,A*48
$GPGGA,232434.000,3854.2130,N,07727.2644,W,1,08,0.99,80.2,M,-33.4,M,,*6E
$GPRMC,232434.000,A,3854.2130,N,07727.2644,W,38.07,117.24,181115,,,A*47
$GPGGA,232435.000,3854.2080,N,07727.2522,W,1,08,0.99,80.3,M,-33.4,M,,*67
$GPRMC,232435.000,A,3854.2080,N,07727.2522,W,38.65,117.36,181115,,,A*48
$GPGGA,232436.000,3854.2029,N,07727.2399,W,1,08,0.99,80.2,M,-33.4,M,,*60
$GPRMC,232436.000,A,3854.2029,N,07727.2399,W,39.19,117.51,181115,,,A*45
$GPGGA,232437.000,3854.1978,N,07727.2275,W,1,08,0.99,80.1,M,-33.4,M,,*6F
$GPRMC,232437.000,A,3854.1978,N,07727.2275,W,39.44,117.58,181115,,,A*48
$GPGGA,232438.000,3854.1927,N,07727.2151,W,1,08,0.99,79.8,M,-33.4,M,,*60
$GPRMC,232438.000,A,3854.1927,N,07727.2151,W,39.01,117.48,181115,,,A*48
$GPGGA,232439.000,3854.1877,N,07727.2027,W,1,08,0.99,79.6,M,-33.4,M,,*6B
$GPRMC,232439.000,A,3854.1877,N,07727.2027,W,39.53,117.53,181115,,,A*40
$GPGGA,232440.000,3854.1827,N,07727.1906,W,1,08,0.99,79.2,M,-33.4,M,,*6D
$GPRMC,232440.000,A,3854.1827,N,07727.1906,W,38.18,117.67,181115,,,A*4B
$GPGGA,232441.000,3854.1777,N,07727.1785,W,1,08,0.99,78.7,M,-33.4,M,,*67
$GPRMC,232441.000,A,3854.1777,N,07727.1785,W,38.82,117.41,181115,,,A*42
$GPGGA,232442.000,3854.1727,N,07727.1661,W,1,08,0.99,78.2,M,-33.4,M,,*6F
$GPRMC,232442.000,A,3854.1727,N,07727.1661,W,39.07,117.04,181115,,,A*42
$GPGGA,232443.000,3854.1677,N,07727.1536,W,1,08,0.99,77.6,M,-33.4,M,,*60
$GPRMC,232443.000,A,3854.1677,N,07727.1536,W,40.00,117.15,181115,,,A*4F
$GPGGA,232444.000,3854.1624,N,07727.1407,W,1,08,0.99,77.2,M,-33.4,M,,*66
$GPRMC,232444.000,A,3854.1624,N,07727.1407,W,41.50,117.25,181115,,,A*4A
$GPGGA,232445.000,3854.1570,N,07727.1273,W,1,08,0.99,76.7,M,-33.4,M,,*64
$GPRMC,232445.000,A,3854.1570,N,07727.1273,W,42.75,117.16,181115,,,A*48
$GPGGA,232446.000,3854.1515,N,07727.1136,W,1,08,0.99,76.4,M,-33.4,M,,*65
$GPRMC,232446.000,A,3854.1515,N,07727.1136,W,43.34,117.19,181115,,,A*41
$GPGGA,232447.000,3854.1459,N,07727.0997,W,1,08,0.99,76.2,M,-33.4,M,,*69
$GPRMC,232447.000,A,3854.1459,N,07727.0997,W,43.68,117.24,181115,,,A*4C
$GPGGA,232448.000,3854.1403,N,07727.0858,W,1,08,0.99,76.1,M,-33.4,M,,*68
$GPRMC,232448.000,A,3854.1403,N,07727.0858,W,43.98,117.36,181115,,,A*42
$GPGGA,232449.000,3854.1346,N,07727.0718,W,1,08,0.99,76.2,M,-33.4,M,,*67
$GPRMC,232449.000,A,3854.1346,N,07727.0718,W,44.19,117.40,181115,,,A*41
$GPGGA,232450.000,3854.1289,N,07727.0578,W,1,08,0.99,76.4,M,-33.4,M,,*6F
$GPRMC,232450.000,A,3854.1289,N,07727.0578,W,44.18,117.41,181115,,,A*4F
$GPGGA,232451.000,3854.1232,N,07727.0438,W,1,08,0.99,76.7,M,-33.4,M,,*68
$GPRMC,232451.000,A,3854.1232,N,07727.0438,W,44.13,117.48,181115,,,A*49
$GPGGA,232452.000,3854.1176,N,07727.0298,W,1,08,0.99,77.1,M,-33.4,M,,*63
$GPRMC,232452.000,A,3854.1176,N,07727.0298,W,44.30,117.46,181115,,,A*4A
$GPGGA,232453.000,3854.1120,N,07727.0160,W,1,08,0.99,77.8,M,-33.4,M,,*6C
$GPRMC,232453.000,A,3854.1120,N,07727.0160,W,44.26,117.25,181115,,,A*4E
$GPGGA,232454.000,3854.1064,N,07727.0023,W,1,08,0.99,78.5,M,-33.4,M,,*6E
$GPRMC,232454.000,A,3854.1064,N,07727.0023,W,43.00,117.53,181115,,,A*4C
$GPGGA,232455.000,3854.1008,N,07726.9887,W,1,08,0.97,79.2,M,-33.4,M,,*63
$GPRMC,232455.000,A,3854.1008,N,07726.9887,W,42.36,117.49,181115,,,A*46
$GPGGA,232456.000,3854.0954,N,07726.9754,W,1,08,0.97,79.8,M,-33.4,M,,*6A
$GPRMC,232456.000,A,3854.0954,N,07726.9754,W,41.70,117.20,181115,,,A*4B
$GPGGA,232457.000,3854.0901,N,07726.9623,W,1,08,0.99,80.3,M,-33.4,M,,*69
$GPRMC,232457.000,A,3854.0901,N,07726.9623,W,41.25,117.14,181115,,,A*4C
$GPGGA,232458.000,3854.0849,N,07726.9492,W,1,08,0.99,80.7,M,-33.4,M,,*67
$GPRMC,232458.000,A,3854.0849,N,07726.9492,W,41.21,117.03,181115,,,A*44
$GPGGA,232459.000,3854.0797,N,07726.9361,W,1,08,0.99,81.1,M,-33.4,M,,*66
$GPRMC,232459.000,A,3854.0797,N,07726.9361,W,41.21,117.09,181115,,,A*48
$GPGGA,232500.000,3854.0744,N,07726.9230,W,1,08,0.99,81.3,M,-33.4,M,,*62
$GPRMC,232500.000,A,3854.0744,N,07726.9230,W,41.24,117.16,181115,,,A*45
$GPGGA,232501.000,3854.0691,N,07726.9099,W,1,08,0.99,81.4,M,-33.4,M,,*6C
$GPRMC,232501.000,A,3854.0691,N,07726.9099,W,41.55,117.19,181115,,,A*45
$GPGGA,232502.000,3854.0637,N,07726.8967,W,1,08,0.99,81.5,M,-33.4,M,,*6B
$GPRMC,232502.000,A,3854.0637,N,07726.8967,W,41.80,117.36,181115,,,A*46
$GPGGA,232503.000,3854.0583,N,07726.8833,W,1,08,0.99,81.5,M,-33.4,M,,*66
$GPRMC,232503.000,A,3854.0583,N,07726.8833,W,42.64,117.51,181115,,,A*43
$GPGGA,232504.000,3854.0528,N,07726.8697,W,1,08,0.99,81.6,M,-33.4,M,,*63
$GPRMC,232504.000,A,3854.0528,N,07726.8697,W,43.41,117.50,181115,,,A*42
$GPGGA,232505.000,3854.0471,N,07726.8560,W,1,08,0.99,81.6,M,-33.4,M,,*64
$GPRMC,232505.000,A,3854.0471,N,07726.8560,W,43.44,117.66,181115,,,A*45
$GPGGA,232506.000,3854.0414,N,07726.8422,W,1,08,0.97,81.7,M,-33.4,M,,*6C
$GPRMC,232506.000,A,3854.0414,N,07726.8422,W,43.65,117.47,181115,,,A*42
$GPGGA,232507.000,3854.0358,N,07726.8279,W,1,08,0.97,81.9,M,-33.4,M,,*64
$GPRMC,232507.000,A,3854.0358,N,07726.8279,W,44.02,116.38,181115,,,A*4B
$GPGGA,232508.000,3854.0303,N,07726.8133,W,1,08,0.97,82.1,M,-33.4,M,,*63
$GPRMC,232508.000,A,3854.0303,N,07726.8133,W,45.74,115.08,181115,,,A*47
$GPGGA,232509.000,3854.0248,N,07726.7985,W,1,08,0.97,82.4,M,-33.4,M,,*63
$GPRMC,232509.000,A,3854.0248,N,07726.7985,W,46.03,115.39,181115,,,A*43
$GPGGA,232510.000,3854.0191,N,07726.7837,W,1,08,0.97,82.7,M,-33.4,M,,*67
$GPRMC,232510.000,A,3854.0191,N,07726.7837,W,46.72,116.81,181115,,,A*42
$GPGGA,232511.000,3854.0131,N,07726.7688,W,1,08,0.97,83.0,M,-33.4,M,,*60
$GPRMC,232511.000,A,3854.0131,N,07726.7688,W,47.14,117.49,181115,,,A*47
$GPGGA,232512.000,3854.0070,N,07726.7540,W,1,08,0.99,83.4,M,-33.4,M,,*6A
$GPRMC,232512.000,A,3854.0070,N,07726.7540,W,47.37,117.58,181115,,,A*46
$GPGGA,232513.000,3854.0009,N,07726.7392,W,1,08,0.99,83.7,M,-33.4,M,,*6F
$GPRMC,232513.000,A,3854.0009,N,07726.7392,W,46.83,117.68,181115,,,A*4D
$GPGGA,232514.000,3853.9948,N,07726.7243,W,1,08,0.99,84.2,M,-33.4,M,,*65
$GPRMC,232514.000,A,3853.9948,N,07726.7243,W,47.28,117.72,181115,,,A*4E
$GPGGA,232515.000,3853.9886,N,07726.7094,W,1,08,0.99,84.6,M,-33.4,M,,*6B
$GPRMC,232515.000,A,3853.9886,N,07726.7094,W,47.30,117.91,181115,,,A*40
$GPGGA,232516.000,3853.9825,N,07726.6945,W,1,08,0.97,85.1,M,-33.4,M,,*6D
$GPRMC,232516.000,A,3853.9825,N,07726.6945,W,47.35,118.14,181115,,,A*49
$GPGGA,232517.000,3853.9762,N,07726.6796,W,1,08,0.97,85.5,M,-33.4,M,,*64
$GPRMC,232517.000,A,3853.9762,N,07726.6796,W,47.35,118.25,181115,,,A*46
$GPGGA,232518.000,3853.9700,N,07726.6648,W,1,08,0.97,85.8,M,-33.4,M,,*60
$GPRMC,232518.000,A,3853.9700,N,07726.6648,W,47.30,118.08,181115,,,A*45
$GPGGA,232519.000,3853.9638,N,07726.6500,W,1,08,0.99,86.0,M,-33.4,M,,*61
$GPRMC,232519.000,A,3853.9638,N,07726.6500,W,47.26,117.81,181115,,,A*48
$GPGGA,232520.000,3853.9577,N,07726.6351,W,1,08,0.99,86.2,M,-33.4,M,,*63
$GPRMC,232520.000,A,3853.9577,N,07726.6351,W,47.24,117.77,181115,,,A*43
$GPGGA,232521.000,3853.9515,N,07726.6202,W,1,08,0.99,86.1,M,-33.4,M,,*62
$GPRMC,232521.000,A,3853.9515,N,07726.6202,W,47.20,117.80,181115,,,A*4D
$GPGGA,232522.000,3853.9454,N,07726.6053,W,1,08,0.99,85.9,M,-33.4,M,,*68
$GPRMC,232522.000,A,3853.9454,N,07726.6053,W,47.36,117.79,181115,,,A*4D
$GPGGA,232523.000,3853.9392,N,07726.5904,W,1,08,0.99,85.7,M,-33.4,M,,*62
$GPRMC,232523.000,A,3853.9392,N,07726.5904,W,47.54,117.71,181115,,,A*45
$GPGGA,232524.000,3853.9331,N,07726.5753,W,1,08,0.99,85.4,M,-33.4,M,,*63
$GPRMC,232524.000,A,3853.9331,N,07726.5753,W,47.54,117.56,181115,,,A*42
$GPGGA,232525.000,3853.9271,N,07726.5604,W,1,08,0.99,85.0,M,-33.4,M,,*60
$GPRMC,232525.000,A,3853.9271,N,07726.5604,W,46.92,117.55,181115,,,A*4D
$GPGGA,232526.000,3853.9211,N,07726.5456,W,1,08,0.99,84.7,M,-33.4,M,,*66
$GPRMC,232526.000,A,3853.9211,N,07726.5456,W,46.49,117.45,181115,,,A*4A
$GPGGA,232527.000,3853.9151,N,07726.5310,W,1,08,0.99,84.5,M,-33.4,M,,*67
$GPRMC,232527.000,A,3853.9151,N,07726.5310,W,46.09,117.49,181115,,,A*41
$GPGGA,232528.000,3853.9092,N,07726.5164,W,1,08,0.99,84.4,M,-33.4,M,,*66
$GPRMC,232528.000,A,3853.9092,N,07726.5164,W,46.06,117.58,181115,,,A*4E
$GPGGA,232529.000,3853.9032,N,07726.5019,W,1,08,0.99,84.4,M,-33.4,M,,*66
$GPRMC,232529.000,A,3853.9032,N,07726.5019,W,46.06,117.60,181115,,,A*45
$GPGGA,232530.000,3853.8973,N,07726.4874,W,1,08,0.99,84.6,M,-33.4,M,,*63
$GPRMC,232530.000,A,3853.8973,N,07726.4874,W,45.99,117.61,181115,,,A*46
$GPGGA,232531.000,3853.8914,N,07726.4730,W,1,08,0.99,85.0,M,-33.4,M,,*6B
$GPRMC,232531.000,A,3853.8914,N,07726.4730,W,45.75,117.51,181115,,,A*48
$GPGGA,232532.000,3853.8855,N,07726.4586,W,1,08,0.99,85.5,M,-33.4,M,,*66
$GPRMC,232532.000,A,3853.8855,N,07726.4586,W,45.54,117.45,181115,,,A*46
$GPGGA,232533.000,3853.8796,N,07726.4442,W,1,08,0.99,86.0,M,-33.4,M,,*68
$GPRMC,232533.000,A,3853.8796,N,07726.4442,W,45.48,117.33,181115,,,A*42
$GPGGA,232534.000,3853.8738,N,07726.4299,W,1,08,0.99,86.7,M,-33.4,M,,*6C
$GPRMC,232534.000,A,3853.8738,N,07726.4299,W,45.42,117.39,181115,,,A*41
$GPGGA,232535.000,3853.8679,N,07726.4156,W,1,08,0.99,87.3,M,-33.4,M,,*6C
$GPRMC,232535.000,A,3853.8679,N,07726.4156,W,45.16,117.63,181115,,,A*4A
$GPGGA,232536.000,3853.8621,N,07726.4015,W,1,08,0.99,87.7,M,-33.4,M,,*60
$GPRMC,232536.000,A,3853.8621,N,07726.4015,W,45.14,117.80,181115,,,A*4D
$GPGGA,232537.000,3853.8564,N,07726.3876,W,1,08,1.00,88.1,M,-33.4,M,,*61
$GPRMC,232537.000,A,3853.8564,N,07726.3876,W,43.61,117.50,181115,,,A*4D
$GPGGA,232538.000,3853.8509,N,07726.3739,W,1,08,0.97,88.4,M,-33.4,M,,*6B
$GPRMC,232538.000,A,3853.8509,N,07726.3739,W,43.04,116.97,181115,,,A*44
$GPGGA,232539.000,3853.8455,N,07726.3603,W,1,08,0.97,88.8,M,-33.4,M,,*66
$GPRMC,232539.000,A,3853.8455,N,07726.3603,W,42.70,116.84,181115,,,A*45
$GPGGA,232540.000,3853.8402,N,07726.3463,W,1,08,0.97,89.1,M,-33.4,M,,*66
$GPRMC,232540.000,A,3853.8402,N,07726.3463,W,43.64,116.07,181115,,,A*42
$GPGGA,232541.000,3853.8350,N,07726.3325,W,1,08,0.97,89.3,M,-33.4,M,,*60
$GPRMC,232541.000,A,3853.8350,N,07726.3325,W,42.71,116.41,181115,,,A*41
$GPGGA,232542.000,3853.8298,N,07726.3189,W,1,08,0.97,89.3,M,-33.4,M,,*62
$GPRMC,232542.000,A,3853.8298,N,07726.3189,W,42.52,117.09,181115,,,A*4F
$GPGGA,232543.000,3853.8245,N,07726.3063,W,1,08,0.97,89.5,M,-33.4,M,,*60
$GPRMC,232543.000,A,3853.8245,N,07726.3063,W,39.71,117.60,181115,,,A*49
$GPGGA,232544.000,3853.8193,N,07726.2942,W,1,08,0.99,89.6,M,-33.4,M,,*69
$GPRMC,232544.000,A,3853.8193,N,07726.2942,W,38.84,117.62,181115,,,A*44
$GPGGA,232545.000,3853.8143,N,07726.2824,W,1,08,0.99,89.6,M,-33.4,M,,*64
$GPRMC,232545.000,A,3853.8143,N,07726.2824,W,38.09,117.41,181115,,,A*4D
$GPGGA,232546.000,3853.8094,N,07726.2708,W,1,08,0.99,89.5,M,-33.4,M,,*6E
$GPRMC,232546.000,A,3853.8094,N,07726.2708,W,37.39,117.57,181115,,,A*4F
$GPGGA,232547.000,3853.8046,N,07726.2594,W,1,08,0.99,89.4,M,-33.4,M,,*66
$GPRMC,232547.000,A,3853.8046,N,07726.2594,W,35.83,117.62,181115,,,A*43
$GPGGA,232548.000,3853.8002,N,07726.2487,W,1,08,0.99,89.5,M,-33.4,M,,*6B
$GPRMC,232548.000,A,3853.8002,N,07726.2487,W,33.05,117.31,181115,,,A*41
$GPGGA,232549.000,3853.7962,N,07726.2389,W,1,08,0.99,89.7,M,-33.4,M,,*61
$GPRMC,232549.000,A,3853.7962,N,07726.2389,W,29.80,117.09,181115,,,A*44
$GPGGA,232550.000,3853.7927,N,07726.2300,W,1,08,0.99,89.7,M,-33.4,M,,*69
$GPRMC,232550.000,A,3853.7927,N,07726.2300,W,26.45,117.02,181115,,,A*41
$GPGGA,232551.000,3853.7897,N,07726.2223,W,1,08,1.00,89.6,M,-33.4,M,,*62
$GPRMC,232551.000,A,3853.7897,N,07726.2223,W,22.71,117.07,181115,,,A*4C
$GPGGA,232552.000,3853.7871,N,07726.2157,W,1,08,1.00,89.5,M,-33.4,M,,*6A
$GPRMC,232552.000,A,3853.7871,N,07726.2157,W,19.37,117.13,181115,,,A*48
$GPGGA,232553.000,3853.7849,N,07726.2103,W,1,08,1.00,89.6,M,-33.4,M,,*62
$GPRMC,232553.000,A,3853.7849,N,07726.2103,W,15.34,117.85,181115,,,A*43
$GPGGA,232554.000,3853.7833,N,07726.2062,W,1,08,1.00,89.2,M,-33.4,M,,*6A
$GPRMC,232554.000,A,3853.7833,N,07726.2062,W,11.10,116.79,181115,,,A*4F
$GPGGA,232555.000,3853.7822,N,07726.2033,W,1,08,1.00,89.6,M,-33.4,M,,*6B
$GPRMC,232555.000,A,3853.7822,N,07726.2033,W,7.97,116.81,181115,,,A*75
$GPGGA,232556.000,3853.7813,N,07726.2012,W,1,08,0.99,89.9,M,-33.4,M,,*67
$GPRMC,232556.000,A,3853.7813,N,07726.2012,W,6.15,117.23,181115,,,A*75
$GPGGA,232557.000,3853.7806,N,07726.1999,W,1,08,1.00,90.2,M,-33.4,M,,*69
$GPRMC,232557.000,A,3853.7806,N,07726.1999,W,3.28,116.61,181115,,,A*75
$GPGGA,232558.000,3853.7801,N,07726.1994,W,1,08,0.97,90.6,M,-33.4,M,,*67
$GPRMC,232558.000,A,3853.7801,N,07726.1994,W,0.10,116.61,181115,,,A*78
$GPGGA,232559.000,3853.7800,N,07726.1996,W,1,08,0.97,91.0,M,-33.4,M,,*62
$GPRMC,232559.000,A,3853.7800,N,07726.1996,W,0.06,116.61,181115,,,A*7D
$GPGGA,232600.000,3853.7799,N,07726.1998,W,1,08,0.97,91.1,M,-33.4,M,,*6D
$GPRMC,232600.000,A,3853.7799,N,07726.1998,W,0.01,116.61,181115,,,A*74
$GPGGA,232601.000,3853.7799,N,07726.2000,W,1,08,0.97,91.2,M,-33.4,M,,*64
$GPRMC,232601.000,A,3853.7799,N,07726.2000,W,0.02,116.61,181115,,,A*7D
$GPGGA,232602.000,3853.7799,N,07726.1999,W,1,08,0.97,91.3,M,-33.4,M,,*6C
$GPRMC,232602.000,A,3853.7799,N,07726.1999,W,0.00,116.61,181115,,,A*76
$GPGGA,232603.000,3853.7799,N,07726.1999,W,1,08,0.97,91.3,M,-33.4,M,,*6D
$GPRMC,232603.000,A,3853.7799,N,07726.1999,W,0.00,116.61,181115,,,A*77
$GPGGA,232604.000,3853.7799,N,07726.1999,W,1,08,1.00,91.3,M,-33.4,M,,*65
$GPRMC,232604.000,A,3853.7799,N,07726.1999,W,0.00,116.61,181115,,,A*70
$GPGGA,232605.000,3853.7799,N,07726.1999,W,1,08,1.00,91.3,M,-33.4,M,,*64
$GPRMC,232605.000,A,3853.7799,N,07726.1999,W,0.00,116.61,181115,,,A*71
$GPGGA,232606.000,3853.7799,N,07726.1999,W,1,08,0.97,91.3,M,-33.4,M,,*68
$GPRMC,232606.000,A,3853.7799,N,07726.1999,W,0.00,116.61,181115,,,A*72
$GPGGA,232607.000,3853.7799,N,07726.1999,W,1,07,1.20,91.3,M,-33.4,M,,*6B
$GPRMC,232607.000,A,3853.7799,N,07726.1999,W,0.00,116.61,181115,,,A*73
$GPGGA,232608.000,3853.7799,N,07726.1999,W,1,08,0.97,91.3,M,-33.4,M,,*66
$GPRMC,232608.000,A,3853.7799,N,07726.1999,W,0.00,116.61,181115,,,A*7C
$GPGGA,232609.000,3853.7799,N,07726.1999,W,1,08,0.97,91.3,M,-33.4,M,,*67
$GPRMC,232609.000,A,3853.7799,N,07726.1999,W,0.00,116.61,181115,,,A*7D
$GPGGA,232610.000,3853.7799,N,07726.1999,W,1,08,0.97,91.3,M,-33.4,M,,*6F
$GPRMC,232610.000,A,3853.7799,N,07726.1999,W,0.00,116.61,181115,,,A*75
$GPGGA,232611.000,3853.7799,N,07726.1999,W,1,08,0.97,91.3,M,-33.4,M,,*6E
$GPRMC,232611.000,A,3853.7799,N,07726.1999,W,0.00,116.61,181115,,,A*74
$GPGGA,232612.000,3853.7799,N,07726.1999,W,1,08,0.97,91.3,M,-33.4,M,,*6D
$GPRMC,232612.000,A,3853.7799,N,07726.1999,W,0.00,116.61,181115,,,A*77
$GPGGA,232613.000,3853.7799,N,07726.1999,W,1,08,0.97,91.3,M,-33.4,M,,*6C
$GPRMC,232613.000,A,3853.7799,N,07726.1999,W,0.00,116.61,181115,,,A*76
$GPGGA,232614.000,3853.7799,N,07726.1999,W,1,08,0.97,91.3,M,-33.4,M,,*6B
$GPRMC,232614.000,A,3853.7799,N,07726.1999,W,0.00,116.61,181115,,,A*71
$GPGGA,232615.000,3853.7799,N,07726.1999,W,1,08,1.00,91.3,M,-33.4,M,,*65
$GPRMC,232615.000,A,3853.7799,N,07726.1999,W,0.00,116.61,181115,,,A*70
$GPGGA,232616.000,3853.7800,N,07726.1999,W,1,08,0.97,91.3,M,-33.4,M,,*66
$GPRMC,232616.000,A,3853.7800,N,07726.1999,W,0.00,116.61,181115,,,A*7C
$GPGGA,232617.000,3853.7799,N,07726.1999,W,1,08,0.97,91.3,M,-33.4,M,,*68
$GPRMC,232617.000,A,3853.7799,N,07726.1999,W,0.00,116.61,181115,,,A*72
$GPGGA,232618.000,3853.7800,N,07726.1999,W,1,08,0.97,91.3,M,-33.4,M,,*68
$GPRMC,232618.000,A,3853.7800,N,07726.1999,W,0.00,116.61,181115,,,A*72
$GPGGA,232619.000,3853.7800,N,07726.1999,W,1,08,0.97,91.3,M,-33.4,M,,*69
$GPRMC,232619.000,A,3853.7800,N,07726.1999,W,0.00,116.61,181115,,,A*73
$GPGGA,232620.000,3853.7800,N,07726.1999,W,1,09,0.91,91.2,M,-33.4,M,,*65
$GPRMC,232620.000,A,3853.7800,N,07726.1999,W,0.00,116.61,181115,,,A*79
$GPGGA,232621.000,3853.7800,N,07726.1999,W,1,09,0.91,91.3,M,-33.4,M,,*65
$GPRMC,232621.000,A,3853.7800,N,07726.1999,W,0.00,116.61,181115,,,A*78
$GPGGA,232622.000,3853.7800,N,07726.1999,W,1,09,0.91,91.2,M,-33.4,M,,*67
$GPRMC,232622.000,A,3853.7800,N,07726.1999,W,0.01,116.61,181115,,,A*7A
$GPGGA,232623.000,3853.7800,N,07726.1999,W,1,09,0.91,91.3,M,-33.4,M,,*67
$GPRMC,232623.000,A,3853.7800,N,07726.1999,W,0.03,116.61,181115,,,A*79
$GPGGA,232624.000,3853.7799,N,07726.1999,W,1,09,0.91,91.3,M,-33.4,M,,*6F
$GPRMC,232624.000,A,3853.7799,N,07726.1999,W,0.03,116.61,181115,,,A*71
$GPGGA,232625.000,3853.7800,N,07726.1999,W,1,09,0.91,91.3,M,-33.4,M,,*61
$GPRMC,232625.000,A,3853.7800,N,07726.1999,W,0.01,116.61,181115,,,A*7D
$GPGGA,232626.000,3853.7800,N,07726.1999,W,1,09,0.91,91.3,M,-33.4,M,,*62
$GPRMC,232626.000,A,3853.7800,N,07726.1999,W,0.00,116.61,181115,,,A*7F
$GPGGA,232627.000,3853.7800,N,07726.1999,W,1,09,0.91,91.3,M,-33.4,M,,*63
$GPRMC,232627.000,A,3853.7800,N,07726.1999,W,0.19,116.61,181115,,,A*76
$GPGGA,232628.000,3853.7799,N,07726.1999,W,1,08,0.97,91.3,M,-33.4,M,,*64
$GPRMC,232628.000,A,3853.7799,N,07726.1999,W,1.20,116.61,181115,,,A*7D
$GPGGA,232629.000,3853.7798,N,07726.1995,W,1,09,0.91,91.3,M,-33.4,M,,*6F
$GPRMC,232629.000,A,3853.7798,N,07726.1995,W,1.19,116.61,181115,,,A*7B
$GPGGA,232630.000,3853.7796,N,07726.1991,W,1,08,0.97,91.3,M,-33.4,M,,*6A
$GPRMC,232630.000,A,3853.7796,N,07726.1991,W,1.06,116.61,181115,,,A*77
$GPGGA,232631.000,3853.7795,N,07726.1988,W,1,08,0.97,91.3,M,-33.4,M,,*60
$GPRMC,232631.000,A,3853.7795,N,07726.1988,W,0.89,116.61,181115,,,A*7B
$GPGGA,232632.000,3853.7794,N,07726.1985,W,1,10,0.89,91.3,M,-33.4,M,,*69
$GPRMC,232632.000,A,3853.7794,N,07726.1985,W,0.67,116.61,181115,,,A*74
$GPGGA,232633.000,3853.7793,N,07726.1983,W,1,10,0.89,91.4,M,-33.4,M,,*6E
$GPRMC,232633.000,A,3853.7793,N,07726.1983,W,0.81,116.61,181115,,,A*7C
$GPGGA,232634.000,3853.7792,N,07726.1980,W,1,10,0.89,91.3,M,-33.4,M,,*6C
$GPRMC,232634.000,A,3853.7792,N,07726.1980,W,2.89,116.61,181115,,,A*73
$GPGGA,232635.000,3853.7787,N,07726.1968,W,1,10,0.89,91.5,M,-33.4,M,,*69
$GPRMC,232635.000,A,3853.7787,N,07726.1968,W,4.21,117.57,181115,,,A*70
$GPGGA,232636.000,3853.7778,N,07726.1951,W,1,10,0.89,91.8,M,-33.4,M,,*6D
$GPRMC,232636.000,A,3853.7778,N,07726.1951,W,4.80,116.72,181115,,,A*74
$GPGGA,232637.000,3853.7770,N,07726.1934,W,1,10,0.89,92.0,M,-33.4,M,,*6C
$GPRMC,232637.000,A,3853.7770,N,07726.1934,W,4.54,116.71,181115,,,A*74
$GPGGA,232638.000,3853.7763,N,07726.1920,W,1,10,0.89,92.1,M,-33.4,M,,*65
$GPRMC,232638.000,A,3853.7763,N,07726.1920,W,3.92,116.72,181115,,,A*72
$GPGGA,232639.000,3853.7759,N,07726.1910,W,1,10,0.94,92.2,M,-33.4,M,,*61
$GPRMC,232639.000,A,3853.7759,N,07726.1910,W,2.39,117.30,181115,,,A*7E
$GPGGA,232640.000,3853.7757,N,07726.1905,W,1,10,0.89,92.1,M,-33.4,M,,*6A
$GPRMC,232640.000,A,3853.7757,N,07726.1905,W,0.66,117.74,181115,,,A*72
$GPGGA,232641.000,3853.7757,N,07726.1904,W,1,10,0.89,91.9,M,-33.4,M,,*61
$GPRMC,232641.000,A,3853.7757,N,07726.1904,W,0.04,117.74,181115,,,A*76
$GPGGA,232642.000,3853.7757,N,07726.1904,W,1,10,0.89,91.9,M,-33.4,M,,*62
$GPRMC,232642.000,A,3853.7757,N,07726.1904,W,0.03,117.74,181115,,,A*72
$GPGGA,232643.000,3853.7756,N,07726.1903,W,1,10,0.89,91.9,M,-33.4,M,,*65
$GPRMC,232643.000,A,3853.7756,N,07726.1903,W,0.02,117.74,181115,,,A*74
$GPGGA,232644.000,3853.7755,N,07726.1903,W,1,10,0.89,92.1,M,-33.4,M,,*6A
$GPRMC,232644.000,A,3853.7755,N,07726.1903,W,0.02,117.74,181115,,,A*70
$GPGGA,232645.000,3853.7755,N,07726.1903,W,1,10,0.89,92.1,M,-33.4,M,,*6B
$GPRMC,232645.000,A,3853.7755,N,07726.1903,W,0.00,117.74,181115,,,A*73
$GPGGA,232646.000,3853.7755,N,07726.1903,W,1,10,0.89,92.1,M,-33.4,M,,*68
$GPRMC,232646.000,A,3853.7755,N,07726.1903,W,0.09,117.74,181115,,,A*79
$GPGGA,232647.000,3853.7755,N,07726.1903,W,1,10,0.89,92.1,M,-33.4,M,,*69
$GPRMC,232647.000,A,3853.7755,N,07726.1903,W,1.51,117.48,181115,,,A*7B
$GPGGA,232648.000,3853.7751,N,07726.1893,W,1,10,0.89,92.0,M,-33.4,M,,*6B
$GPRMC,232648.000,A,3853.7751,N,07726.1893,W,3.99,117.05,181115,,,A*77
$GPGGA,232649.000,3853.7744,N,07726.1874,W,1,10,0.94,92.0,M,-33.4,M,,*6B
$GPRMC,232649.000,A,3853.7744,N,07726.1874,W,7.39,116.78,181115,,,A*7E
$GPGGA,232650.000,3853.7734,N,07726.1847,W,1,10,0.94,92.1,M,-33.4,M,,*65
$GPRMC,232650.000,A,3853.7734,N,07726.1847,W,9.08,117.33,181115,,,A*73
$GPGGA,232651.000,3853.7721,N,07726.1815,W,1,10,0.94,92.2,M,-33.4,M,,*64
$GPRMC,232651.000,A,3853.7721,N,07726.1815,W,10.76,117.83,181115,,,A*4B
$GPGGA,232652.000,3853.7706,N,07726.1777,W,1,10,0.94,92.4,M,-33.4,M,,*6F
$GPRMC,232652.000,A,3853.7706,N,07726.1777,W,12.56,117.67,181115,,,A*4C
$GPGGA,232653.000,3853.7690,N,07726.1736,W,1,10,0.94,92.6,M,-33.4,M,,*67
$GPRMC,232653.000,A,3853.7690,N,07726.1736,W,12.95,117.36,181115,,,A*4D
$GPGGA,232654.000,3853.7674,N,07726.1693,W,1,10,0.94,92.7,M,-33.4,M,,*65
$GPRMC,232654.000,A,3853.7674,N,07726.1693,W,13.01,117.07,181115,,,A*40
$GPGGA,232655.000,3853.7658,N,07726.1651,W,1,10,0.94,92.7,M,-33.4,M,,*64
$GPRMC,232655.000,A,3853.7658,N,07726.1651,W,12.44,116.94,181115,,,A*4A
$GPGGA,232656.000,3853.7643,N,07726.1612,W,1,10,0.94,92.8,M,-33.4,M,,*65
$GPRMC,232656.000,A,3853.7643,N,07726.1612,W,12.00,117.50,181115,,,A*4D
$GPGGA,232657.000,3853.7627,N,07726.1573,W,1,10,0.94,92.9,M,-33.4,M,,*63
$GPRMC,232657.000,A,3853.7627,N,07726.1573,W,11.77,117.73,181115,,,A*48
$GPGGA,232658.000,3853.7611,N,07726.1536,W,1,10,0.94,93.1,M,-33.4,M,,*61
$GPRMC,232658.000,A,3853.7611,N,07726.1536,W,11.80,117.93,181115,,,A*45
$GPGGA,232659.000,3853.7597,N,07726.1499,W,1,10,0.94,93.2,M,-33.4,M,,*6A
$GPRMC,232659.000,A,3853.7597,N,07726.1499,W,10.95,117.75,181115,,,A*40
$GPGGA,232700.000,3853.7584,N,07726.1466,W,1,10,0.94,93.4,M,-33.4,M,,*63
$GPRMC,232700.000,A,3853.7584,N,07726.1466,W,9.43,117.86,181115,,,A*70
$GPGGA,232701.000,3853.7572,N,07726.1438,W,1,10,0.89,93.6,M,-33.4,M,,*6E
$GPRMC,232701.000,A,3853.7572,N,07726.1438,W,8.26,117.73,181115,,,A*7B
$GPGGA,232702.000,3853.7562,N,07726.1413,W,1,10,0.89,93.6,M,-33.4,M,,*65
$GPRMC,232702.000,A,3853.7562,N,07726.1413,W,7.44,117.81,181115,,,A*76
$GPGGA,232703.000,3853.7552,N,07726.1388,W,1,10,0.89,93.6,M,-33.4,M,,*62
$GPRMC,232703.000,A,3853.7552,N,07726.1388,W,7.90,117.45,181115,,,A*70
$GPGGA,232704.000,3853.7541,N,07726.1362,W,1,10,0.89,93.8,M,-33.4,M,,*6D
$GPRMC,232704.000,A,3853.7541,N,07726.1362,W,8.84,117.50,181115,,,A*7F
$GPGGA,232705.000,3853.7530,N,07726.1336,W,1,10,0.94,93.9,M,-33.4,M,,*66
$GPRMC,232705.000,A,3853.7530,N,07726.1336,W,7.96,117.72,181115,,,A*75
$GPGGA,232706.000,3853.7520,N,07726.1312,W,1,10,0.94,94.0,M,-33.4,M,,*6C
$GPRMC,232706.000,A,3853.7520,N,07726.1312,W,6.98,117.49,181115,,,A*76
$GPGGA,232707.000,3853.7511,N,07726.1295,W,1,10,0.94,94.1,M,-33.4,M,,*60
$GPRMC,232707.000,A,3853.7511,N,07726.1295,W,5.45,117.55,181115,,,A*75
$GPGGA,232708.000,3853.7507,N,07726.1283,W,1,10,0.94,94.1,M,-33.4,M,,*6F
$GPRMC,232708.000,A,3853.7507,N,07726.1283,W,2.88,117.55,181115,,,A*7C
$GPGGA,232709.000,3853.7504,N,07726.1277,W,1,10,0.89,94.1,M,-33.4,M,,*6A
$GPRMC,232709.000,A,3853.7504,N,07726.1277,W,1.66,117.55,181115,,,A*76
$GPGGA,232710.000,3853.7504,N,07726.1273,W,1,10,0.89,94.1,M,-33.4,M,,*66
$GPRMC,232710.000,A,3853.7504,N,07726.1273,W,1.48,117.55,181115,,,A*76
$GPGGA,232711.000,3853.7502,N,07726.1268,W,1,10,0.89,94.1,M,-33.4,M,,*6B
$GPRMC,232711.000,A,3853.7502,N,07726.1268,W,2.00,117.55,181115,,,A*74
$GPGGA,232712.000,3853.7499,N,07726.1260,W,1,10,0.89,94.2,M,-33.4,M,,*60
$GPRMC,232712.000,A,3853.7499,N,07726.1260,W,2.76,117.55,181115,,,A*7D
$GPGGA,232713.000,3853.7495,N,07726.1251,W,1,10,0.89,94.3,M,-33.4,M,,*6E
$GPRMC,232713.000,A,3853.7495,N,07726.1251,W,3.16,117.73,181115,,,A*71
$GPGGA,232714.000,3853.7492,N,07726.1241,W,1,10,0.89,94.2,M,-33.4,M,,*6E
$GPRMC,232714.000,A,3853.7492,N,07726.1241,W,3.00,117.09,181115,,,A*7A
$GPGGA,232715.000,3853.7488,N,07726.1232,W,1,10,0.89,94.2,M,-33.4,M,,*60
$GPRMC,232715.000,A,3853.7488,N,07726.1232,W,2.63,117.09,181115,,,A*70
$GPGGA,232716.000,3853.7485,N,07726.1224,W,1,10,0.89,94.3,M,-33.4,M,,*68
$GPRMC,232716.000,A,3853.7485,N,07726.1224,W,2.56,117.09,181115,,,A*7F
$GPGGA,232717.000,3853.7482,N,07726.1217,W,1,10,0.89,94.3,M,-33.4,M,,*6E
$GPRMC,232717.000,A,3853.7482,N,07726.1217,W,2.38,117.09,181115,,,A*71
$GPGGA,232718.000,3853.7480,N,07726.1211,W,1,10,0.89,94.4,M,-33.4,M,,*62
$GPRMC,232718.000,A,3853.7480,N,07726.1211,W,1.75,117.09,181115,,,A*70
$GPGGA,232719.000,3853.7478,N,07726.1206,W,1,10,0.89,94.4,M,-33.4,M,,*62
$GPRMC,232719.000,A,3853.7478,N,07726.1206,W,1.01,117.09,181115,,,A*73
$GPGGA,232720.000,3853.7477,N,07726.1202,W,1,10,0.89,94.4,M,-33.4,M,,*63
$GPRMC,232720.000,A,3853.7477,N,07726.1202,W,1.22,117.09,181115,,,A*73
$GPGGA,232721.000,3853.7474,N,07726.1196,W,1,10,0.89,94.5,M,-33.4,M,,*6E
$GPRMC,232721.000,A,3853.7474,N,07726.1196,W,2.57,117.09,181115,,,A*7E
$GPGGA,232722.000,3853.7469,N,07726.1183,W,1,10,0.89,94.6,M,-33.4,M,,*66
$GPRMC,232722.000,A,3853.7469,N,07726.1183,W,5.46,117.61,181115,,,A*7C
$GPGGA,232723.000,3853.7460,N,07726.1161,W,1,10,0.94,94.7,M,-33.4,M,,*6F
$GPRMC,232723.000,A,3853.7460,N,07726.1161,W,8.42,117.11,181115,,,A*76
$GPGGA,232724.000,3853.7448,N,07726.1129,W,1,10,0.94,94.8,M,-33.4,M,,*61
$GPRMC,232724.000,A,3853.7448,N,07726.1129,W,11.37,117.22,181115,,,A*4D
$GPGGA,232725.000,3853.7433,N,07726.1091,W,1,10,0.89,94.9,M,-33.4,M,,*63
$GPRMC,232725.000,A,3853.7433,N,07726.1091,W,11.55,117.55,181115,,,A*46
$GPGGA,232726.000,3853.7418,N,07726.1056,W,1,10,0.89,95.0,M,-33.4,M,,*6A
$GPRMC,232726.000,A,3853.7418,N,07726.1056,W,10.47,117.46,181115,,,A*47
$GPGGA,232727.000,3853.7406,N,07726.1025,W,1,10,0.89,95.1,M,-33.4,M,,*61
$GPRMC,232727.000,A,3853.7406,N,07726.1025,W,8.94,117.27,181115,,,A*7D
$GPGGA,232728.000,3853.7395,N,07726.0997,W,1,10,0.89,95.3,M,-33.4,M,,*60
$GPRMC,232728.000,A,3853.7395,N,07726.0997,W,8.25,117.34,181115,,,A*76
$GPGGA,232729.000,3853.7384,N,07726.0970,W,1,10,0.94,95.4,M,-33.4,M,,*63
$GPRMC,232729.000,A,3853.7384,N,07726.0970,W,8.85,117.21,181115,,,A*70
$GPGGA,232730.000,3853.7371,N,07726.0938,W,1,10,0.95,95.5,M,-33.4,M,,*6D
$GPRMC,232730.000,A,3853.7371,N,07726.0938,W,11.38,116.99,181115,,,A*42
$GPGGA,232731.000,3853.7355,N,07726.0896,W,1,10,0.95,95.6,M,-33.4,M,,*6C
$GPRMC,232731.000,A,3853.7355,N,07726.0896,W,14.36,117.03,181115,,,A*49
$GPGGA,232732.000,3853.7336,N,07726.0847,W,1,10,0.95,95.8,M,-33.4,M,,*68
$GPRMC,232732.000,A,3853.7336,N,07726.0847,W,15.73,117.12,181115,,,A*43
$GPGGA,232733.000,3853.7316,N,07726.0798,W,1,10,0.95,96.0,M,-33.4,M,,*6D
$GPRMC,232733.000,A,3853.7316,N,07726.0798,W,14.87,117.58,181115,,,A*49
$GPGGA,232734.000,3853.7298,N,07726.0752,W,1,10,0.95,96.2,M,-33.4,M,,*69
$GPRMC,232734.000,A,3853.7298,N,07726.0752,W,14.06,117.57,181115,,,A*49
$GPGGA,232735.000,3853.7279,N,07726.0706,W,1,10,0.95,96.3,M,-33.4,M,,*67
$GPRMC,232735.000,A,3853.7279,N,07726.0706,W,14.57,117.34,181115,,,A*47
$GPGGA,232736.000,3853.7260,N,07726.0659,W,1,10,0.95,96.4,M,-33.4,M,,*60
$GPRMC,232736.000,A,3853.7260,N,07726.0659,W,14.57,117.54,181115,,,A*41
$GPGGA,232737.000,3853.7241,N,07726.0611,W,1,10,0.95,96.5,M,-33.4,M,,*6F
$GPRMC,232737.000,A,3853.7241,N,07726.0611,W,15.65,117.49,181115,,,A*43
$GPGGA,232738.000,3853.7219,N,07726.0558,W,1,10,0.95,96.7,M,-33.4,M,,*61
$GPRMC,232738.000,A,3853.7219,N,07726.0558,W,17.09,117.63,181115,,,A*4F
$GPGGA,232739.000,3853.7195,N,07726.0500,W,1,10,0.94,96.8,M,-33.4,M,,*64
$GPRMC,232739.000,A,3853.7195,N,07726.0500,W,18.35,117.63,181115,,,A*44
$GPGGA,232740.000,3853.7170,N,07726.0437,W,1,10,0.95,96.8,M,-33.4,M,,*65
$GPRMC,232740.000,A,3853.7170,N,07726.0437,W,19.95,117.33,181115,,,A*4A
$GPGGA,232741.000,3853.7142,N,07726.0368,W,1,10,0.95,96.7,M,-33.4,M,,*67
$GPRMC,232741.000,A,3853.7142,N,07726.0368,W,22.10,117.40,181115,,,A*46
$GPGGA,232742.000,3853.7112,N,07726.0293,W,1,10,0.95,96.7,M,-33.4,M,,*64
$GPRMC,232742.000,A,3853.7112,N,07726.0293,W,23.99,117.64,181115,,,A*43
$GPGGA,232743.000,3853.7078,N,07726.0211,W,1,10,0.89,96.7,M,-33.4,M,,*6F
$GPRMC,232743.000,A,3853.7078,N,07726.0211,W,26.96,117.64,181115,,,A*4F
$GPGGA,232744.000,3853.7041,N,07726.0119,W,1,10,0.89,96.7,M,-33.4,M,,*69
$GPRMC,232744.000,A,3853.7041,N,07726.0119,W,30.39,117.59,181115,,,A*45
$GPGGA,232745.000,3853.7000,N,07726.0017,W,1,10,0.89,96.7,M,-33.4,M,,*62
$GPRMC,232745.000,A,3853.7000,N,07726.0017,W,33.23,117.53,181115,,,A*4C
$GPGGA,232746.000,3853.6955,N,07725.9907,W,1,10,0.89,96.8,M,-33.4,M,,*64
$GPRMC,232746.000,A,3853.6955,N,07725.9907,W,35.35,117.28,181115,,,A*48
$GPGGA,232747.000,3853.6908,N,07725.9791,W,1,10,0.89,97.1,M,-33.4,M,,*64
$GPRMC,232747.000,A,3853.6908,N,07725.9791,W,37.04,117.31,181115,,,A*48
$GPGGA,232748.000,3853.6860,N,07725.9672,W,1,10,0.89,97.6,M,-33.4,M,,*6F
$GPRMC,232748.000,A,3853.6860,N,07725.9672,W,36.87,117.43,181115,,,A*4B
$GPGGA,232749.000,3853.6811,N,07725.9555,W,1,10,0.95,98.0,M,-33.4,M,,*6A
$GPRMC,232749.000,A,3853.6811,N,07725.9555,W,36.87,117.68,181115,,,A*43
$GPGGA,232750.000,3853.6762,N,07725.9436,W,1,10,0.95,98.4,M,-33.4,M,,*69
$GPRMC,232750.000,A,3853.6762,N,07725.9436,W,37.71,117.84,181115,,,A*4E
$GPGGA,232751.000,3853.6712,N,07725.9314,W,1,10,0.94,98.8,M,-33.4,M,,*65
$GPRMC,232751.000,A,3853.6712,N,07725.9314,W,38.62,117.70,181115,,,A*49
$GPGGA,232752.000,3853.6662,N,07725.9192,W,1,10,0.95,99.1,M,-33.4,M,,*65
$GPRMC,232752.000,A,3853.6662,N,07725.9192,W,38.40,117.61,181115,,,A*40
$GPGGA,232753.000,3853.6613,N,07725.9074,W,1,10,0.89,99.3,M,-33.4,M,,*64
$GPRMC,232753.000,A,3853.6613,N,07725.9074,W,36.31,117.41,181115,,,A*44
$GPGGA,232754.000,3853.6570,N,07725.8965,W,1,10,0.89,99.4,M,-33.4,M,,*6A
$GPRMC,232754.000,A,3853.6570,N,07725.8965,W,31.81,117.51,181115,,,A*40
$GPGGA,232755.000,3853.6530,N,07725.8867,W,1,10,0.89,99.4,M,-33.4,M,,*6C
$GPRMC,232755.000,A,3853.6530,N,07725.8867,W,30.01,117.57,181115,,,A*49
$GPGGA,232756.000,3853.6492,N,07725.8774,W,1,10,0.89,99.5,M,-33.4,M,,*6A
$GPRMC,232756.000,A,3853.6492,N,07725.8774,W,28.96,117.21,181115,,,A*48
$GPGGA,232757.000,3853.6456,N,07725.8683,W,1,10,0.95,99.6,M,-33.4,M,,*64
$GPRMC,232757.000,A,3853.6456,N,07725.8683,W,27.93,116.28,181115,,,A*4A
$GPGGA,232758.000,3853.6422,N,07725.8595,W,1,10,0.95,99.6,M,-33.4,M,,*6C
$GPRMC,232758.000,A,3853.6422,N,07725.8595,W,26.97,116.70,181115,,,A*4A
$GPGGA,232759.000,3853.6388,N,07725.8511,W,1,10,0.95,99.7,M,-33.4,M,,*67
$GPRMC,232759.000,A,3853.6388,N,07725.8511,W,26.12,117.30,181115,,,A*48
$GPGGA,232800.000,3853.6355,N,07725.8430,W,1,10,0.95,99.7,M,-33.4,M,,*66
$GPRMC,232800.000,A,3853.6355,N,07725.8430,W,25.19,117.58,181115,,,A*4F
$GPGGA,232801.000,3853.6322,N,07725.8350,W,1,10,0.95,99.8,M,-33.4,M,,*69
$GPRMC,232801.000,A,3853.6322,N,07725.8350,W,25.77,117.68,181115,,,A*44
$GPGGA,232802.000,3853.6288,N,07725.8267,W,1,10,0.95,99.9,M,-33.4,M,,*6F
$GPRMC,232802.000,A,3853.6288,N,07725.8267,W,26.94,117.42,181115,,,A*45
$GPGGA,232803.000,3853.6252,N,07725.8178,W,1,10,0.95,99.9,M,-33.4,M,,*64
$GPRMC,232803.000,A,3853.6252,N,07725.8178,W,26.01,117.22,181115,,,A*44
$GPGGA,232804.000,3853.6213,N,07725.8083,W,1,10,0.95,99.9,M,-33.4,M,,*63
$GPRMC,232804.000,A,3853.6213,N,07725.8083,W,30.75,117.38,181115,,,A*4C
$GPGGA,232805.000,3853.6175,N,07725.7987,W,1,10,0.95,100.0,M,-33.4,M,,*5B
$GPRMC,232805.000,A,3853.6175,N,07725.7987,W,29.73,117.52,181115,,,A*4E
$GPGGA,232806.000,3853.6137,N,07725.7896,W,1,10,0.95,100.2,M,-33.4,M,,*5D
$GPRMC,232806.000,A,3853.6137,N,07725.7896,W,28.10,117.54,181115,,,A*48
$GPGGA,232807.000,3853.6104,N,07725.7816,W,1,10,0.95,100.3,M,-33.4,M,,*55
$GPRMC,232807.000,A,3853.6104,N,07725.7816,W,23.43,117.47,181115,,,A*4E
$GPGGA,232808.000,3853.6075,N,07725.7745,W,1,10,0.95,100.3,M,-33.4,M,,*54
$GPRMC,232808.000,A,3853.6075,N,07725.7745,W,21.39,117.16,181115,,,A*44
$GPGGA,232809.000,3853.6049,N,07725.7680,W,1,10,0.95,100.4,M,-33.4,M,,*55
$GPRMC,232809.000,A,3853.6049,N,07725.7680,W,20.05,117.16,181115,,,A*4C
$GPGGA,232810.000,3853.6023,N,07725.7616,W,1,10,0.95,100.5,M,-33.4,M,,*5F
$GPRMC,232810.000,A,3853.6023,N,07725.7616,W,21.09,117.29,181115,,,A*46
$GPGGA,232811.000,3853.5995,N,07725.7547,W,1,10,0.95,100.5,M,-33.4,M,,*5E
$GPRMC,232811.000,A,3853.5995,N,07725.7547,W,22.95,117.45,181115,,,A*4B
$GPGGA,232812.000,3853.5964,N,07725.7471,W,1,10,0.95,100.5,M,-33.4,M,,*57
$GPRMC,232812.000,A,3853.5964,N,07725.7471,W,25.14,117.25,181115,,,A*4A
$GPGGA,232813.000,3853.5931,N,07725.7389,W,1,10,0.95,100.6,M,-33.4,M,,*55
$GPRMC,232813.000,A,3853.5931,N,07725.7389,W,26.66,117.10,181115,,,A*4B
$GPGGA,232814.000,3853.5897,N,07725.7305,W,1,10,0.95,100.7,M,-33.4,M,,*5A
$GPRMC,232814.000,A,3853.5897,N,07725.7305,W,26.65,117.07,181115,,,A*40
$GPGGA,232815.000,3853.5863,N,07725.7219,W,1,10,0.95,100.8,M,-33.4,M,,*53
$GPRMC,232815.000,A,3853.5863,N,07725.7219,W,27.54,117.10,181115,,,A*43
$GPGGA,232816.000,3853.5828,N,07725.7129,W,1,10,0.95,100.9,M,-33.4,M,,*5E
$GPRMC,232816.000,A,3853.5828,N,07725.7129,W,28.89,117.02,181115,,,A*43
$GPGGA,232817.000,3853.5790,N,07725.7035,W,1,10,0.95,101.0,M,-33.4,M,,*57
$GPRMC,232817.000,A,3853.5790,N,07725.7035,W,30.66,116.93,181115,,,A*43
$GPGGA,232818.000,3853.5750,N,07725.6934,W,1,10,0.95,101.1,M,-33.4,M,,*5C
$GPRMC,232818.000,A,3853.5750,N,07725.6934,W,32.58,116.85,181115,,,A*41
$GPGGA,232819.000,3853.5708,N,07725.6828,W,1,10,0.95,101.2,M,-33.4,M,,*5F
$GPRMC,232819.000,A,3853.5708,N,07725.6828,W,33.54,116.73,181115,,,A*45
$GPGGA,232820.000,3853.5666,N,07725.6721,W,1,10,0.95,101.2,M,-33.4,M,,*5A
$GPRMC,232820.000,A,3853.5666,N,07725.6721,W,33.52,116.65,181115,,,A*41
$GPGGA,232821.000,3853.5625,N,07725.6617,W,1,10,0.95,101.1,M,-33.4,M,,*5B
$GPRMC,232821.000,A,3853.5625,N,07725.6617,W,31.58,116.70,181115,,,A*4F
$GPGGA,232822.000,3853.5589,N,07725.6525,W,1,10,0.89,101.1,M,-33.4,M,,*52
$GPRMC,232822.000,A,3853.5589,N,07725.6525,W,26.08,116.60,181115,,,A*49
$GPGGA,232823.000,3853.5559,N,07725.6448,W,1,10,0.89,101.0,M,-33.4,M,,*55
$GPRMC,232823.000,A,3853.5559,N,07725.6448,W,22.18,116.32,181115,,,A*4D
$GPGGA,232824.000,3853.5535,N,07725.6385,W,1,10,0.95,100.8,M,-33.4,M,,*5A
$GPRMC,232824.000,A,3853.5535,N,07725.6385,W,17.68,116.46,181115,,,A*44
$GPGGA,232825.000,3853.5516,N,07725.6336,W,1,10,0.95,100.7,M,-33.4,M,,*5D
$GPRMC,232825.000,A,3853.5516,N,07725.6336,W,13.30,116.50,181115,,,A*42
$GPGGA,232826.000,3853.5503,N,07725.6303,W,1,10,0.95,100.7,M,-33.4,M,,*5C
$GPRMC,232826.000,A,3853.5503,N,07725.6303,W,8.10,116.75,181115,,,A*7C
$GPGGA,232827.000,3853.5498,N,07725.6289,W,1,10,0.95,100.7,M,-33.4,M,,*5D
$GPRMC,232827.000,A,3853.5498,N,07725.6289,W,4.00,116.68,181115,,,A*7C
$GPGGA,232828.000,3853.5496,N,07725.6286,W,1,10,0.89,100.5,M,-33.4,M,,*5C
$GPRMC,232828.000,A,3853.5496,N,07725.6286,W,0.09,116.68,181115,,,A*7F
$GPGGA,232829.000,3853.5496,N,07725.6289,W,1,10,0.89,100.5,M,-33.4,M,,*52
$GPRMC,232829.000,A,3853.5496,N,07725.6289,W,0.01,116.68,181115,,,A*79
$GPGGA,232830.000,3853.5496,N,07725.6293,W,1,10,0.89,100.5,M,-33.4,M,,*51
$GPRMC,232830.000,A,3853.5496,N,07725.6293,W,0.01,116.68,181115,,,A*7A
$GPGGA,232831.000,3853.5497,N,07725.6295,W,1,09,0.91,100.5,M,-33.4,M,,*56
$GPRMC,232831.000,A,3853.5497,N,07725.6295,W,0.00,116.68,181115,,,A*7D
$GPGGA,232832.000,3853.5497,N,07725.6295,W,1,09,0.91,100.4,M,-33.4,M,,*54
$GPRMC,232832.000,A,3853.5497,N,07725.6295,W,0.00,116.68,181115,,,A*7E
$GPGGA,232833.000,3853.5496,N,07725.6298,W,2,09,0.91,100.5,M,-33.4,M,0000,0000*5B
$GPRMC,232833.000,A,3853.5496,N,07725.6298,W,0.00,116.68,181115,,,D*76
$GPGGA,232834.000,3853.5496,N,07725.6301,W,2,10,0.89,100.6,M,-33.4,M,0000,0000*5F
$GPRMC,232834.000,A,3853.5496,N,07725.6301,W,0.00,116.68,181115,,,D*70
$GPGGA,232835.000,3853.5496,N,07725.6303,W,2,09,0.91,100.6,M,-33.4,M,0000,0000*5D
$GPRMC,232835.000,A,3853.5496,N,07725.6303,W,0.00,116.68,181115,,,D*73
$GPGGA,232836.000,3853.5496,N,07725.6304,W,2,10,0.89,100.7,M,-33.4,M,0000,0000*59
$GPRMC,232836.000,A,3853.5496,N,07725.6304,W,0.00,116.68,181115,,,D*77
$GPGGA,232837.000,3853.5495,N,07725.6306,W,2,09,0.91,100.8,M,-33.4,M,0000,0000*57
$GPRMC,232837.000,A,3853.5495,N,07725.6306,W,0.00,116.68,181115,,,D*77
$GPGGA,232838.000,3853.5495,N,07725.6307,W,2,10,0.89,100.8,M,-33.4,M,0000,0000*58
$GPRMC,232838.000,A,3853.5495,N,07725.6307,W,0.00,116.68,181115,,,D*79
$GPGGA,232839.000,3853.5495,N,07725.6308,W,2,10,0.89,100.8,M,-33.4,M,0000,0000*56
$GPRMC,232839.000,A,3853.5495,N,07725.6308,W,0.01,116.68,181115,,,D*76
$GPGGA,232840.000,3853.5495,N,07725.6309,W,2,10,0.95,100.9,M,-33.4,M,0000,0000*55
$GPRMC,232840.000,A,3853.5495,N,07725.6309,W,0.01,116.68,181115,,,D*79
$GPGGA,232841.000,3853.5496,N,07725.6311,W,2,10,0.95,100.9,M,-33.4,M,0000,0000*5E
$GPRMC,232841.000,A,3853.5496,N,07725.6311,W,0.01,116.68,181115,,,D*72
$GPGGA,232842.000,3853.5496,N,07725.6311,W,2,10,0.89,101.0,M,-33.4,M,0000,0000*58
$GPRMC,232842.000,A,3853.5496,N,07725.6311,W,0.00,116.68,181115,,,D*70
$GPGGA,232843.000,3853.5497,N,07725.6312,W,2,10,0.89,101.0,M,-33.4,M,0000,0000*5B
$GPRMC,232843.000,A,3853.5497,N,07725.6312,W,0.00,116.68,181115,,,D*73
$GPGGA,232844.000,3853.5497,N,07725.6312,W,2,10,0.89,101.0,M,-33.4,M,0000,0000*5C
$GPRMC,232844.000,A,3853.5497,N,07725.6312,W,0.00,116.68,181115,,,D*74
$GPGGA,232845.000,3853.5496,N,07725.6312,W,2,10,0.89,101.1,M,-33.4,M,0000,0000*5D
$GPRMC,232845.000,A,3853.5496,N,07725.6312,W,0.00,116.68,181115,,,D*74
$GPGGA,232846.000,3853.5497,N,07725.6312,W,2,10,0.89,101.1,M,-33.4,M,0000,0000*5F
$GPRMC,232846.000,A,3853.5497,N,07725.6312,W,0.00,116.68,181115,,,D*76
$GPGGA,232847.000,3853.5496,N,07725.6313,W,2,10,0.89,101.1,M,-33.4,M,0000,0000*5E
$GPRMC,232847.000,A,3853.5496,N,07725.6313,W,0.00,116.68,181115,,,D*77
$GPGGA,232848.000,3853.5496,N,07725.6314,W,2,10,0.89,101.2,M,-33.4,M,0000,0000*55
$GPRMC,232848.000,A,3853.5496,N,07725.6314,W,0.00,116.68,181115,,,D*7F
