
$GPGGA,031803.988,3854.7183,N,07728.9218,W,1,04,2.40,83.1,M,-33.4,M,,*60
$GPRMC,031803.988,A,3854.7183,N,07728.9218,W,0.98,17.37,181115,,,A*4D
$GPGGA,031804.988,3854.7146,N,07728.9214,W,1,05,1.97,75.0,M,-33.4,M,,*62
$GPRMC,031804.988,A,3854.7146,N,07728.9214,W,1.27,0.16,181115,,,A*7F
$GPGGA,031806.000,3854.7113,N,07728.9214,W,1,05,2.59,72.8,M,-33.4,M,,*67
$GPRMC,031806.000,A,3854.7113,N,07728.9214,W,1.03,351.20,181115,,,A*70
$GPGGA,031807.000,3854.7102,N,07728.9211,W,1,05,2.59,73.9,M,-33.4,M,,*63
$GPRMC,031807.000,A,3854.7102,N,07728.9211,W,0.80,351.31,181115,,,A*7E
$GPGGA,031808.000,3854.7091,N,07728.9211,W,1,05,2.59,72.6,M,-33.4,M,,*69
$GPRMC,031808.000,A,3854.7091,N,07728.9211,W,0.84,352.81,181115,,,A*76
$GPGGA,031809.000,3854.7085,N,07728.9210,W,1,05,2.59,70.8,M,-33.4,M,,*60
$GPRMC,031809.000,A,3854.7085,N,07728.9210,W,0.78,351.87,181115,,,A*75
$GPGGA,031810.000,3854.7076,N,07728.9205,W,1,05,2.59,74.3,M,-33.4,M,,*6F
$GPRMC,031810.000,A,3854.7076,N,07728.9205,W,0.68,350.99,181115,,,A*7A
$GPGGA,031811.000,3854.7074,N,07728.9202,W,1,05,2.59,76.0,M,-33.4,M,,*6A
$GPRMC,031811.000,A,3854.7074,N,07728.9202,W,0.61,358.47,181115,,,A*7C
$GPGGA,031812.000,3854.7072,N,07728.9204,W,1,05,2.59,75.7,M,-33.4,M,,*6D
$GPRMC,031812.000,A,3854.7072,N,07728.9204,W,0.69,353.51,181115,,,A*7B
$GPGGA,031813.000,3854.7071,N,07728.9206,W,1,05,2.59,75.3,M,-33.4,M,,*69
$GPRMC,031813.000,A,3854.7071,N,07728.9206,W,0.66,343.82,181115,,,A*7B
$GPGGA,031814.000,3854.7071,N,07728.9209,W,1,05,1.97,75.5,M,-33.4,M,,*66
$GPRMC,031814.000,A,3854.7071,N,07728.9209,W,0.65,342.42,181115,,,A*7D
$GPGGA,031815.000,3854.7069,N,07728.9210,W,1,05,1.97,75.9,M,-33.4,M,,*6A
$GPRMC,031815.000,A,3854.7069,N,07728.9210,W,0.59,345.76,181115,,,A*72
$GPGGA,031816.000,3854.7063,N,07728.9212,W,1,05,2.59,76.1,M,-33.4,M,,*6B
$GPRMC,031816.000,A,3854.7063,N,07728.9212,W,0.55,358.33,181115,,,A*78
$GPGGA,031817.000,3854.7062,N,07728.9213,W,1,05,2.59,76.9,M,-33.4,M,,*62
$GPRMC,031817.000,A,3854.7062,N,07728.9213,W,0.52,352.64,181115,,,A*76
$GPGGA,031818.000,3854.7061,N,07728.9213,W,1,05,2.59,77.4,M,-33.4,M,,*62
$GPRMC,031818.000,A,3854.7061,N,07728.9213,W,0.45,2.52,181115,,,A*7F
$GPGGA,031819.000,3854.7060,N,07728.9213,W,1,05,2.59,77.4,M,-33.4,M,,*62
$GPRMC,031819.000,A,3854.7060,N,07728.9213,W,0.44,14.57,181115,,,A*4C
$GPGGA,031820.000,3854.7061,N,07728.9213,W,1,05,2.59,78.0,M,-33.4,M,,*62
$GPRMC,031820.000,A,3854.7061,N,07728.9213,W,0.55,9.20,181115,,,A*7B
$GPGGA,031821.000,3854.7058,N,07728.9214,W,1,05,2.59,78.3,M,-33.4,M,,*6D
$GPRMC,031821.000,A,3854.7058,N,07728.9214,W,0.33,6.49,181115,,,A*77
$GPGGA,031822.000,3854.7053,N,07728.9214,W,1,05,2.59,79.0,M,-33.4,M,,*67
$GPRMC,031822.000,A,3854.7053,N,07728.9214,W,0.25,20.79,181115,,,A*4F
$GPGGA,031823.000,3854.7049,N,07728.9213,W,1,05,1.97,77.4,M,-33.4,M,,*61
$GPRMC,031823.000,A,3854.7049,N,07728.9213,W,0.16,60.28,181115,,,A*42
$GPGGA,031824.000,3854.7047,N,07728.9216,W,1,05,1.97,76.2,M,-33.4,M,,*6A
$GPRMC,031824.000,A,3854.7047,N,07728.9216,W,0.02,305.89,181115,,,A*70
$GPGGA,031825.000,3854.7045,N,07728.9217,W,1,05,1.97,75.5,M,-33.4,M,,*6C
$GPRMC,031825.000,A,3854.7045,N,07728.9217,W,0.02,287.00,181115,,,A*78
$GPGGA,031826.000,3854.7045,N,07728.9218,W,1,05,1.97,75.0,M,-33.4,M,,*65
$GPRMC,031826.000,A,3854.7045,N,07728.9218,W,0.07,154.15,181115,,,A*78
$GPGGA,031827.000,3854.7045,N,07728.9218,W,1,05,1.97,74.9,M,-33.4,M,,*6C
$GPRMC,031827.000,A,3854.7045,N,07728.9218,W,0.09,153.07,181115,,,A*73
$GPGGA,031828.000,3854.7046,N,07728.9219,W,1,05,1.97,75.2,M,-33.4,M,,*6B
$GPRMC,031828.000,A,3854.7046,N,07728.9219,W,0.11,126.63,181115,,,A*77
$GPGGA,031829.000,3854.7047,N,07728.9220,W,1,05,1.97,75.4,M,-33.4,M,,*67
$GPRMC,031829.000,A,3854.7047,N,07728.9220,W,0.12,162.65,181115,,,A*78
$GPGGA,031830.000,3854.7045,N,07728.9222,W,1,05,1.97,75.6,M,-33.4,M,,*6D
$GPRMC,031830.000,A,3854.7045,N,07728.9222,W,0.33,183.73,181115,,,A*7B
$GPGGA,031831.000,3854.7047,N,07728.9224,W,1,05,1.97,75.6,M,-33.4,M,,*68
$GPRMC,031831.000,A,3854.7047,N,07728.9224,W,0.21,188.17,181115,,,A*74
$GPGGA,031832.000,3854.7048,N,07728.9224,W,1,05,1.97,75.7,M,-33.4,M,,*65
$GPRMC,031832.000,A,3854.7048,N,07728.9224,W,0.24,138.59,181115,,,A*7C
$GPGGA,031833.000,3854.7046,N,07728.9223,W,1,05,1.97,76.1,M,-33.4,M,,*68
$GPRMC,031833.000,A,3854.7046,N,07728.9223,W,0.38,144.96,181115,,,A*71
$GPGGA,031834.000,3854.7048,N,07728.9224,W,1,05,1.97,76.8,M,-33.4,M,,*6F
$GPRMC,031834.000,A,3854.7048,N,07728.9224,W,0.24,157.12,181115,,,A*7C
$GPGGA,031835.000,3854.7049,N,07728.9228,W,1,05,1.97,77.1,M,-33.4,M,,*6B
$GPRMC,031835.000,A,3854.7049,N,07728.9228,W,0.24,214.21,181115,,,A*74
$GPGGA,031836.000,3854.7052,N,07728.9229,W,1,05,1.97,77.5,M,-33.4,M,,*67
$GPRMC,031836.000,A,3854.7052,N,07728.9229,W,0.08,247.28,181115,,,A*7D
$GPGGA,031837.000,3854.7058,N,07728.9232,W,1,05,1.97,77.8,M,-33.4,M,,*6B
$GPRMC,031837.000,A,3854.7058,N,07728.9232,W,0.25,335.55,181115,,,A*7D
$GPGGA,031838.000,3854.7058,N,07728.9232,W,1,05,1.97,77.8,M,-33.4,M,,*64
$GPRMC,031838.000,A,3854.7058,N,07728.9232,W,0.24,306.41,181115,,,A*76
$GPGGA,031839.000,3854.7059,N,07728.9233,W,1,05,1.97,77.8,M,-33.4,M,,*65
$GPRMC,031839.000,A,3854.7059,N,07728.9233,W,0.23,304.68,181115,,,A*79
$GPGGA,031840.000,3854.7059,N,07728.9233,W,1,05,1.97,77.8,M,-33.4,M,,*6B
$GPRMC,031840.000,A,3854.7059,N,07728.9233,W,0.15,245.69,181115,,,A*77
$GPGGA,031841.000,3854.7059,N,07728.9234,W,1,05,1.97,77.8,M,-33.4,M,,*6D
$GPRMC,031841.000,A,3854.7059,N,07728.9234,W,0.17,260.12,181115,,,A*78
$GPGGA,031842.000,3854.7059,N,07728.9234,W,1,05,1.97,77.8,M,-33.4,M,,*6E
$GPRMC,031842.000,A,3854.7059,N,07728.9234,W,0.24,241.18,181115,,,A*72
$GPGGA,031843.000,3854.7058,N,07728.9235,W,1,05,1.97,77.8,M,-33.4,M,,*6F
$GPRMC,031843.000,A,3854.7058,N,07728.9235,W,0.28,215.19,181115,,,A*7F
$GPGGA,031844.000,3854.7058,N,07728.9236,W,1,05,1.97,77.8,M,-33.4,M,,*6B
$GPRMC,031844.000,A,3854.7058,N,07728.9236,W,0.17,274.38,181115,,,A*73
$GPGGA,031845.000,3854.7058,N,07728.9237,W,1,05,1.97,77.8,M,-33.4,M,,*6B
$GPRMC,031845.000,A,3854.7058,N,07728.9237,W,0.19,1.03,181115,,,A*75
$GPGGA,031846.000,3854.7058,N,07728.9237,W,1,05,2.58,77.8,M,-33.4,M,,*68
$GPRMC,031846.000,A,3854.7058,N,07728.9237,W,0.30,3.94,181115,,,A*71
$GPGGA,031847.000,3854.7059,N,07728.9237,W,1,05,2.58,77.8,M,-33.4,M,,*68
$GPRMC,031847.000,A,3854.7059,N,07728.9237,W,0.46,357.70,181115,,,A*78
$GPGGA,031848.000,3854.7061,N,07728.9237,W,1,05,2.58,77.8,M,-33.4,M,,*6C
$GPRMC,031848.000,A,3854.7061,N,07728.9237,W,0.24,0.63,181115,,,A*7B
$GPGGA,031849.000,3854.7061,N,07728.9237,W,1,05,2.58,77.8,M,-33.4,M,,*6D
$GPRMC,031849.000,A,3854.7061,N,07728.9237,W,0.10,13.07,181115,,,A*4D
$GPGGA,031850.000,3854.7061,N,07728.9236,W,1,05,2.57,77.8,M,-33.4,M,,*6B
$GPRMC,031850.000,A,3854.7061,N,07728.9236,W,0.08,32.84,181115,,,A*45
$GPGGA,031851.000,3854.7061,N,07728.9236,W,1,05,1.97,77.8,M,-33.4,M,,*65
$GPRMC,031851.000,A,3854.7061,N,07728.9236,W,0.09,18.12,181115,,,A*42
$GPGGA,031852.000,3854.7062,N,07728.9236,W,1,05,1.97,77.8,M,-33.4,M,,*65
$GPRMC,031852.000,A,3854.7062,N,07728.9236,W,0.17,100.46,181115,,,A*74
$GPGGA,031853.000,3854.7062,N,07728.9236,W,1,06,1.44,77.8,M,-33.4,M,,*69
$GPRMC,031853.000,A,3854.7062,N,07728.9236,W,0.11,25.27,181115,,,A*42
$GPGGA,031854.000,3854.7062,N,07728.9235,W,1,06,1.44,77.8,M,-33.4,M,,*6D
$GPRMC,031854.000,A,3854.7062,N,07728.9235,W,0.13,24.25,181115,,,A*47
$GPGGA,031855.000,3854.7062,N,07728.9235,W,1,06,1.44,77.8,M,-33.4,M,,*6C
$GPRMC,031855.000,A,3854.7062,N,07728.9235,W,0.25,38.72,181115,,,A*4C
$GPGGA,031856.000,3854.7063,N,07728.9235,W,1,06,1.44,77.8,M,-33.4,M,,*6E
$GPRMC,031856.000,A,3854.7063,N,07728.9235,W,0.23,27.47,181115,,,A*40
$GPGGA,031857.000,3854.7063,N,07728.9234,W,1,06,1.44,77.8,M,-33.4,M,,*6E
$GPRMC,031857.000,A,3854.7063,N,07728.9234,W,0.18,18.35,181115,,,A*41
$GPGGA,031858.000,3854.7064,N,07728.9234,W,1,06,1.44,77.8,M,-33.4,M,,*66
$GPRMC,031858.000,A,3854.7064,N,07728.9234,W,0.22,57.87,181115,,,A*42
$GPGGA,031859.000,3854.7064,N,07728.9233,W,1,06,1.44,77.8,M,-33.4,M,,*60
$GPRMC,031859.000,A,3854.7064,N,07728.9233,W,0.19,27.91,181115,,,A*4C
$GPGGA,031900.000,3854.7065,N,07728.9233,W,1,06,1.44,77.8,M,-33.4,M,,*6C
$GPRMC,031900.000,A,3854.7065,N,07728.9233,W,0.34,23.39,181115,,,A*49
$GPGGA,031901.000,3854.7066,N,07728.9233,W,1,06,1.44,77.8,M,-33.4,M,,*6E
$GPRMC,031901.000,A,3854.7066,N,07728.9233,W,0.31,16.31,181115,,,A*40
$GPGGA,031902.000,3854.7066,N,07728.9232,W,1,06,1.44,77.8,M,-33.4,M,,*6C
$GPRMC,031902.000,A,3854.7066,N,07728.9232,W,0.32,4.01,181115,,,A*71
$GPGGA,031903.000,3854.7067,N,07728.9232,W,1,06,1.80,77.8,M,-33.4,M,,*64
$GPRMC,031903.000,A,3854.7067,N,07728.9232,W,0.32,8.28,181115,,,A*76
$GPGGA,031904.000,3854.7068,N,07728.9232,W,1,06,1.80,77.9,M,-33.4,M,,*6D
$GPRMC,031904.000,A,3854.7068,N,07728.9232,W,0.45,22.41,181115,,,A*49
$GPGGA,031905.000,3854.7069,N,07728.9231,W,1,06,1.44,77.9,M,-33.4,M,,*66
$GPRMC,031905.000,A,3854.7069,N,07728.9231,W,0.44,26.45,181115,,,A*4B
$GPGGA,031906.000,3854.7070,N,07728.9231,W,1,06,1.44,77.9,M,-33.4,M,,*6D
$GPRMC,031906.000,A,3854.7070,N,07728.9231,W,0.29,29.26,181115,,,A*41
$GPGGA,031907.000,3854.7071,N,07728.9230,W,1,06,1.44,77.9,M,-33.4,M,,*6C
$GPRMC,031907.000,A,3854.7071,N,07728.9230,W,0.27,351.04,181115,,,A*72
$GPGGA,031908.000,3854.7072,N,07728.9230,W,1,06,1.80,77.9,M,-33.4,M,,*68
$GPRMC,031908.000,A,3854.7072,N,07728.9230,W,0.28,9.14,181115,,,A*7E
$GPGGA,031909.000,3854.7073,N,07728.9230,W,1,06,1.80,77.9,M,-33.4,M,,*68
$GPRMC,031909.000,A,3854.7073,N,07728.9230,W,0.24,9.17,181115,,,A*71
$GPGGA,031910.000,3854.7074,N,07728.9230,W,1,06,1.80,77.9,M,-33.4,M,,*67
$GPRMC,031910.000,A,3854.7074,N,07728.9230,W,0.30,15.51,181115,,,A*44
