$GPRMC,225719.085,A,3855.0166,N,07729.2328,W,36.00,295.68,261115,,,A*44
$GPRMC,225719.400,A,3855.0179,N,07729.2364,W,36.73,296.47,261115,,,A*41
$GPRMC,225719.600,A,3855.0188,N,07729.2384,W,37.13,296.52,261115,,,A*40
$GPRMC,225719.800,A,3855.0197,N,07729.2406,W,37.35,296.38,261115,,,A*45
$GPRMC,225720.000,A,3855.0205,N,07729.2426,W,37.67,295.68,261115,,,A*4C
$GPRMC,225720.200,A,3855.0214,N,07729.2444,W,37.95,295.28,261115,,,A*43
$GPRMC,225720.400,A,3855.0224,N,07729.2465,W,38.39,295.59,261115,,,A*4A
$GPRMC,225720.600,A,3855.0233,N,07729.2491,W,39.00,296.18,261115,,,A*48
$GPRMC,225720.800,A,3855.0243,N,07729.2517,W,39.40,296.74,261115,,,A*40
$GPRMC,225721.000,A,3855.0255,N,07729.2540,W,39.66,297.62,261115,,,A*4E
$GPRMC,225721.200,A,3855.0266,N,07729.2562,W,39.76,297.68,261115,,,A*47
$GPRMC,225721.400,A,3855.0277,N,07729.2586,W,39.90,297.11,261115,,,A*4D
$GPRMC,225721.600,A,3855.0287,N,07729.2610,W,40.27,296.58,261115,,,A*42
$GPRMC,225721.800,A,3855.0297,N,07729.2636,W,40.60,296.55,261115,,,A*47
$GPRMC,225722.000,A,3855.0308,N,07729.2662,W,41.02,296.55,261115,,,A*4F
$GPRMC,225722.200,A,3855.0318,N,07729.2690,W,41.37,296.59,261115,,,A*4B
$GPRMC,225722.400,A,3855.0327,N,07729.2719,W,41.54,296.57,261115,,,A*4A
$GPRMC,225722.600,A,3855.0336,N,07729.2751,W,41.84,296.72,261115,,,A*4E
$GPRMC,225722.800,A,3855.0345,N,07729.2781,W,41.90,296.91,261115,,,A*41
$GPRMC,225723.000,A,3855.0355,N,07729.2810,W,42.12,297.36,261115,,,A*4B
$GPRMC,225723.200,A,3855.0366,N,07729.2837,W,42.23,297.63,261115,,,A*4E
$GPRMC,225723.400,A,3855.0376,N,07729.2865,W,42.47,297.21,261115,,,A*4A
$GPRMC,225723.600,A,3855.0387,N,07729.2894,W,42.80,296.51,261115,,,A*45
$GPRMC,225723.800,A,3855.0397,N,07729.2922,W,43.21,296.34,261115,,,A*4F
$GPRMC,225724.000,A,3855.0408,N,07729.2949,W,43.30,296.68,261115,,,A*45
$GPRMC,225724.200,A,3855.0420,N,07729.2977,W,43.23,296.89,261115,,,A*4D
$GPRMC,225724.400,A,3855.0431,N,07729.3005,W,43.51,296.23,261115,,,A*43
$GPRMC,225724.600,A,3855.0441,N,07729.3033,W,43.66,295.65,261115,,,A*46
$GPRMC,225724.800,A,3855.0453,N,07729.3059,W,43.94,295.96,261115,,,A*46
$GPRMC,225725.000,A,3855.0465,N,07729.3085,W,44.09,296.19,261115,,,A*4C
$GPRMC,225725.200,A,3855.0477,N,07729.3112,W,44.23,296.22,261115,,,A*42
$GPRMC,225725.400,A,3855.0489,N,07729.3139,W,44.54,296.70,261115,,,A*4B
$GPRMC,225725.600,A,3855.0501,N,07729.3168,W,45.05,297.33,261115,,,A*4F
$GPRMC,225725.800,A,3855.0513,N,07729.3197,W,45.20,297.29,261115,,,A*4E
$GPRMC,225726.000,A,3855.0525,N,07729.3226,W,45.25,297.03,261115,,,A*44
$GPRMC,225726.200,A,3855.0536,N,07729.3256,W,45.49,296.83,261115,,,A*40
$GPRMC,225726.400,A,3855.0548,N,07729.3287,W,45.27,296.71,261115,,,A*46
$GPRMC,225726.600,A,3855.0559,N,07729.3317,W,45.36,296.86,261115,,,A*44
$GPRMC,225726.800,A,3855.0571,N,07729.3346,W,45.71,297.12,261115,,,A*4B
$GPRMC,225727.000,A,3855.0583,N,07729.3375,W,46.16,297.09,261115,,,A*47
$GPRMC,225727.200,A,3855.0595,N,07729.3406,W,46.42,297.30,261115,,,A*4A
$GPRMC,225727.400,A,3855.0608,N,07729.3436,W,46.63,297.42,261115,,,A*4E
$GPRMC,225727.600,A,3855.0620,N,07729.3466,W,46.76,297.32,261115,,,A*40
$GPRMC,225727.800,A,3855.0632,N,07729.3496,W,46.98,297.29,261115,,,A*48
$GPRMC,225728.000,A,3855.0644,N,07729.3526,W,47.24,296.88,261115,,,A*48
$GPRMC,225728.200,A,3855.0657,N,07729.3555,W,47.23,296.44,261115,,,A*4B
$GPRMC,225728.400,A,3855.0669,N,07729.3584,W,47.26,296.41,261115,,,A*4C
$GPRMC,225728.600,A,3855.0681,N,07729.3613,W,47.29,296.63,261115,,,A*4A
$GPRMC,225728.800,A,3855.0693,N,07729.3643,W,47.26,296.65,261115,,,A*4B
$GPRMC,225729.000,A,3855.0705,N,07729.3672,W,47.27,296.46,261115,,,A*4E
$GPRMC,225729.200,A,3855.0718,N,07729.3701,W,47.18,296.34,261115,,,A*4C
$GPRMC,225729.400,A,3855.0730,N,07729.3730,W,47.02,296.48,261115,,,A*42
$GPRMC,225729.600,A,3855.0743,N,07729.3758,W,46.93,296.80,261115,,,A*47
$GPRMC,225729.800,A,3855.0755,N,07729.3786,W,46.87,296.97,261115,,,A*4E
$GPRMC,225730.000,A,3855.0767,N,07729.3815,W,46.73,297.23,261115,,,A*4F
$GPRMC,225730.200,A,3855.0779,N,07729.3843,W,46.66,297.34,261115,,,A*43
$GPRMC,225730.400,A,3855.0791,N,07729.3872,W,46.64,297.47,261115,,,A*47
$GPRMC,225730.600,A,3855.0803,N,07729.3901,W,46.59,297.64,261115,,,A*4B
$GPRMC,225730.800,A,3855.0815,N,07729.3931,W,46.53,297.69,261115,,,A*46
$GPRMC,225731.000,A,3855.0827,N,07729.3960,W,46.56,297.84,261115,,,A*4C
$GPRMC,225731.200,A,3855.0839,N,07729.3989,W,46.62,297.55,261115,,,A*4D
$GPRMC,225731.400,A,3855.0851,N,07729.4019,W,46.65,297.48,261115,,,A*49
$GPRMC,225731.600,A,3855.0862,N,07729.4048,W,46.71,297.41,261115,,,A*43
$GPRMC,225731.800,A,3855.0875,N,07729.4078,W,46.73,297.45,261115,,,A*4E
$GPRMC,225732.000,A,3855.0887,N,07729.4108,W,46.80,297.49,261115,,,A*4E
$GPRMC,225732.200,A,3855.0899,N,07729.4138,W,46.82,297.49,261115,,,A*42
$GPRMC,225732.400,A,3855.0911,N,07729.4167,W,46.81,297.47,261115,,,A*42
$GPRMC,225732.600,A,3855.0923,N,07729.4197,W,46.77,297.41,261115,,,A*41
$GPRMC,225732.800,A,3855.0935,N,07729.4226,W,46.75,297.34,261115,,,A*41
$GPRMC,225733.000,A,3855.0947,N,07729.4256,W,46.72,297.21,261115,,,A*49
$GPRMC,225733.200,A,3855.0959,N,07729.4285,W,46.72,297.11,261115,,,A*49
$GPRMC,225733.400,A,3855.0971,N,07729.4314,W,46.69,297.12,261115,,,A*45
$GPRMC,225733.600,A,3855.0984,N,07729.4343,W,46.69,297.02,261115,,,A*4E
$GPRMC,225733.800,A,3855.0996,N,07729.4372,W,46.69,296.99,261115,,,A*42
$GPRMC,225734.000,A,3855.1008,N,07729.4402,W,46.68,297.02,261115,,,A*40
$GPRMC,225734.200,A,3855.1020,N,07729.4431,W,46.73,297.10,261115,,,A*41
$GPRMC,225734.400,A,3855.1031,N,07729.4461,W,46.67,297.13,261115,,,A*44
$GPRMC,225734.600,A,3855.1043,N,07729.4491,W,46.59,296.92,261115,,,A*49
$GPRMC,225734.800,A,3855.1055,N,07729.4521,W,46.63,297.03,261115,,,A*4A
$GPRMC,225735.000,A,3855.1066,N,07729.4550,W,46.67,297.09,261115,,,A*4B
$GPRMC,225735.200,A,3855.1078,N,07729.4580,W,46.72,297.12,261115,,,A*45
$GPRMC,225735.400,A,3855.1090,N,07729.4610,W,46.76,297.20,261115,,,A*4A
$GPRMC,225735.600,A,3855.1102,N,07729.4640,W,46.86,297.29,261115,,,A*41
$GPRMC,225735.800,A,3855.1114,N,07729.4670,W,46.95,297.20,261115,,,A*40
$GPRMC,225736.000,A,3855.1126,N,07729.4700,W,47.05,297.16,261115,,,A*41
$GPRMC,225736.200,A,3855.1138,N,07729.4730,W,47.12,297.24,261115,,,A*48
$GPRMC,225736.400,A,3855.1150,N,07729.4759,W,47.08,297.24,261115,,,A*44
$GPRMC,225736.600,A,3855.1162,N,07729.4789,W,47.13,297.42,261115,,,A*40
$GPRMC,225736.800,A,3855.1174,N,07729.4819,W,47.12,297.41,261115,,,A*4D
$GPRMC,225737.000,A,3855.1186,N,07729.4849,W,47.15,297.40,261115,,,A*4A
$GPRMC,225737.200,A,3855.1198,N,07729.4878,W,47.18,297.30,261115,,,A*4F
$GPRMC,225737.400,A,3855.1210,N,07729.4908,W,47.26,297.24,261115,,,A*44
$GPRMC,225737.600,A,3855.1222,N,07729.4938,W,47.37,297.19,261115,,,A*4A
$GPRMC,225737.800,A,3855.1235,N,07729.4967,W,47.44,297.17,261115,,,A*42
$GPRMC,225738.000,A,3855.1247,N,07729.4997,W,47.56,297.12,261115,,,A*49
$GPRMC,225738.200,A,3855.1259,N,07729.5027,W,47.66,297.14,261115,,,A*42
$GPRMC,225738.400,A,3855.1271,N,07729.5057,W,47.67,297.12,261115,,,A*4E
$GPRMC,225738.600,A,3855.1283,N,07729.5087,W,47.64,297.16,261115,,,A*4B
$GPRMC,225738.800,A,3855.1295,N,07729.5118,W,47.81,297.19,261115,,,A*41
$GPRMC,225739.000,A,3855.1308,N,07729.5148,W,48.06,297.44,261115,,,A*40
$GPRMC,225739.200,A,3855.1321,N,07729.5179,W,48.26,297.57,261115,,,A*4B
$GPRMC,225739.400,A,3855.1333,N,07729.5209,W,48.34,297.56,261115,,,A*48
$GPRMC,225739.600,A,3855.1345,N,07729.5240,W,48.39,297.55,261115,,,A*48
$GPRMC,225739.800,A,3855.1358,N,07729.5271,W,48.38,297.47,261115,,,A*4A
$GPRMC,225740.000,A,3855.1370,N,07729.5301,W,48.42,297.30,261115,,,A*4D
$GPRMC,225740.200,A,3855.1382,N,07729.5332,W,48.48,297.22,261115,,,A*4B
$GPRMC,225740.400,A,3855.1394,N,07729.5363,W,48.50,297.06,261115,,,A*41
$GPRMC,225740.600,A,3855.1407,N,07729.5394,W,48.59,297.11,261115,,,A*49
$GPRMC,225740.800,A,3855.1419,N,07729.5424,W,48.64,296.94,261115,,,A*46
$GPRMC,225741.000,A,3855.1431,N,07729.5455,W,48.73,296.89,261115,,,A*49
$GPRMC,225741.200,A,3855.1443,N,07729.5486,W,48.77,296.82,261115,,,A*4F
$GPRMC,225741.400,A,3855.1455,N,07729.5518,W,48.84,296.82,261115,,,A*44
$GPRMC,225741.600,A,3855.1467,N,07729.5549,W,48.88,296.77,261115,,,A*45
$GPRMC,225741.800,A,3855.1479,N,07729.5580,W,48.86,296.80,261115,,,A*47
$GPRMC,225742.000,A,3855.1492,N,07729.5611,W,48.88,296.78,261115,,,A*4B
$GPRMC,225742.200,A,3855.1504,N,07729.5642,W,48.87,296.83,261115,,,A*4A
$GPRMC,225742.400,A,3855.1516,N,07729.5673,W,48.80,296.88,261115,,,A*41
$GPRMC,225742.600,A,3855.1529,N,07729.5703,W,48.73,296.97,261115,,,A*4B
$GPRMC,225742.800,A,3855.1541,N,07729.5734,W,48.70,296.95,261115,,,A*4E
$GPRMC,225743.000,A,3855.1553,N,07729.5765,W,48.52,296.89,261115,,,A*4D
$GPRMC,225743.200,A,3855.1565,N,07729.5795,W,48.24,296.88,261115,,,A*45
$GPRMC,225743.400,A,3855.1577,N,07729.5825,W,47.96,296.86,261115,,,A*4C
$GPRMC,225743.600,A,3855.1590,N,07729.5856,W,47.78,296.89,261115,,,A*4C
$GPRMC,225743.800,A,3855.1602,N,07729.5886,W,47.64,296.88,261115,,,A*4B
$GPRMC,225744.000,A,3855.1614,N,07729.5916,W,47.41,296.96,261115,,,A*43
$GPRMC,225744.200,A,3855.1625,N,07729.5946,W,47.24,297.06,261115,,,A*4D
$GPRMC,225744.400,A,3855.1637,N,07729.5976,W,47.09,297.05,261115,,,A*47
$GPRMC,225744.600,A,3855.1649,N,07729.6006,W,46.99,297.12,261115,,,A*4F
$GPRMC,225744.800,A,3855.1661,N,07729.6035,W,46.89,297.12,261115,,,A*4A
$GPRMC,225745.000,A,3855.1673,N,07729.6065,W,46.75,297.13,261115,,,A*47
$GPRMC,225745.200,A,3855.1684,N,07729.6095,W,46.59,297.13,261115,,,A*4C
$GPRMC,225745.400,A,3855.1696,N,07729.6124,W,46.46,297.14,261115,,,A*4B
$GPRMC,225745.600,A,3855.1708,N,07729.6154,W,46.29,297.04,261115,,,A*40
$GPRMC,225745.800,A,3855.1719,N,07729.6183,W,46.18,297.11,261115,,,A*42
$GPRMC,225746.000,A,3855.1731,N,07729.6212,W,45.97,297.21,261115,,,A*4F
$GPRMC,225746.200,A,3855.1742,N,07729.6241,W,45.89,297.11,261115,,,A*43
$GPRMC,225746.400,A,3855.1754,N,07729.6270,W,45.77,296.93,261115,,,A*4A
$GPRMC,225746.600,A,3855.1765,N,07729.6299,W,45.72,296.79,261115,,,A*4C
$GPRMC,225746.800,A,3855.1777,N,07729.6328,W,45.66,296.77,261115,,,A*41
$GPRMC,225747.000,A,3855.1788,N,07729.6357,W,45.57,296.76,261115,,,A*43
$GPRMC,225747.200,A,3855.1800,N,07729.6386,W,45.54,296.68,261115,,,A*4E
$GPRMC,225747.400,A,3855.1811,N,07729.6415,W,45.48,296.53,261115,,,A*40
$GPRMC,225747.600,A,3855.1822,N,07729.6444,W,45.26,296.39,261115,,,A*42
$GPRMC,225747.800,A,3855.1833,N,07729.6472,W,45.16,296.42,261115,,,A*46
$GPRMC,225748.000,A,3855.1845,N,07729.6501,W,45.01,296.47,261115,,,A*46
$GPRMC,225748.200,A,3855.1856,N,07729.6529,W,44.82,296.38,261115,,,A*4E
$GPRMC,225748.400,A,3855.1867,N,07729.6558,W,44.65,296.52,261115,,,A*49
$GPRMC,225748.600,A,3855.1878,N,07729.6586,W,44.45,296.74,261115,,,A*40
$GPRMC,225748.800,A,3855.1889,N,07729.6614,W,44.25,296.75,261115,,,A*4F
$GPRMC,225749.000,A,3855.1900,N,07729.6642,W,43.84,296.67,261115,,,A*4A
$GPRMC,225749.200,A,3855.1911,N,07729.6669,W,43.43,296.68,261115,,,A*45
$GPRMC,225749.400,A,3855.1921,N,07729.6696,W,43.01,296.73,261115,,,A*4C
$GPRMC,225749.600,A,3855.1932,N,07729.6723,W,42.58,296.67,261115,,,A*4B
$GPRMC,225749.800,A,3855.1942,N,07729.6750,W,42.35,296.77,261115,,,A*4C
$GPRMC,225750.000,A,3855.1953,N,07729.6777,W,42.01,297.02,261115,,,A*4D
$GPRMC,225750.200,A,3855.1963,N,07729.6803,W,41.74,297.18,261115,,,A*4A
$GPRMC,225750.400,A,3855.1973,N,07729.6829,W,41.66,297.18,261115,,,A*46
$GPRMC,225750.600,A,3855.1984,N,07729.6856,W,41.18,297.14,261115,,,A*41
$GPRMC,225750.800,A,3855.1994,N,07729.6882,W,40.92,297.08,261115,,,A*49
$GPRMC,225751.000,A,3855.2004,N,07729.6907,W,40.53,296.96,261115,,,A*44
$GPRMC,225751.200,A,3855.2014,N,07729.6933,W,40.57,296.92,261115,,,A*40
$GPRMC,225751.400,A,3855.2023,N,07729.6958,W,40.37,296.86,261115,,,A*4C
$GPRMC,225751.600,A,3855.2033,N,07729.6983,W,40.18,296.80,261115,,,A*42
$GPRMC,225751.800,A,3855.2043,N,07729.7008,W,40.07,296.75,261115,,,A*44
$GPRMC,225752.000,A,3855.2053,N,07729.7033,W,39.96,296.86,261115,,,A*4C
$GPRMC,225752.200,A,3855.2062,N,07729.7057,W,39.84,297.00,261115,,,A*42
$GPRMC,225752.400,A,3855.2072,N,07729.7081,W,39.68,297.11,261115,,,A*4C
$GPRMC,225752.600,A,3855.2082,N,07729.7104,W,39.54,297.13,261115,,,A*40
$GPRMC,225752.800,A,3855.2091,N,07729.7128,W,39.39,297.25,261115,,,A*4C
$GPRMC,225753.000,A,3855.2101,N,07729.7152,W,37.75,297.29,261115,,,A*4A
$GPRMC,225753.200,A,3855.2111,N,07729.7175,W,37.42,297.41,261115,,,A*46
$GPRMC,225753.400,A,3855.2120,N,07729.7199,W,37.21,297.47,261115,,,A*43
$GPRMC,225753.600,A,3855.2130,N,07729.7222,W,37.13,297.49,261115,,,A*4C
$GPRMC,225753.800,A,3855.2139,N,07729.7245,W,36.89,297.52,261115,,,A*42
$GPRMC,225754.000,A,3855.2149,N,07729.7268,W,36.66,297.45,261115,,,A*42
$GPRMC,225754.200,A,3855.2158,N,07729.7291,W,36.28,297.24,261115,,,A*4B
$GPRMC,225754.400,A,3855.2167,N,07729.7314,W,36.06,296.97,261115,,,A*48
$GPRMC,225754.600,A,3855.2176,N,07729.7337,W,35.79,297.04,261115,,,A*4B
$GPRMC,225754.800,A,3855.2185,N,07729.7359,W,35.72,297.02,261115,,,A*4C
$GPRMC,225755.000,A,3855.2194,N,07729.7381,W,35.31,296.96,261115,,,A*4B
$GPRMC,225755.200,A,3855.2203,N,07729.7404,W,35.09,296.76,261115,,,A*4B
$GPRMC,225755.400,A,3855.2211,N,07729.7426,W,35.02,296.45,261115,,,A*45
$GPRMC,225755.600,A,3855.2220,N,07729.7448,W,34.77,296.65,261115,,,A*4C
$GPRMC,225755.800,A,3855.2229,N,07729.7470,W,34.74,296.70,261115,,,A*47
$GPRMC,225756.000,A,3855.2238,N,07729.7492,W,34.62,296.68,261115,,,A*4E
$GPRMC,225756.200,A,3855.2247,N,07729.7513,W,34.54,296.94,261115,,,A*4A
$GPRMC,225756.400,A,3855.2255,N,07729.7534,W,34.43,296.77,261115,,,A*41
$GPRMC,225756.600,A,3855.2263,N,07729.7554,W,32.94,296.71,261115,,,A*4A
$GPRMC,225756.800,A,3855.2272,N,07729.7575,W,32.49,296.80,261115,,,A*49
$GPRMC,225757.000,A,3855.2279,N,07729.7594,W,32.69,296.86,261115,,,A*40
$GPRMC,225757.200,A,3855.2287,N,07729.7614,W,31.18,296.79,261115,,,A*4D
$GPRMC,225757.400,A,3855.2294,N,07729.7632,W,29.75,297.22,261115,,,A*40
$GPRMC,225757.600,A,3855.2302,N,07729.7650,W,29.08,297.38,261115,,,A*49
$GPRMC,225757.800,A,3855.2309,N,07729.7668,W,28.51,297.61,261115,,,A*46
$GPRMC,225758.000,A,3855.2316,N,07729.7685,W,28.25,297.61,261115,,,A*4F
$GPRMC,225758.200,A,3855.2322,N,07729.7702,W,27.61,297.83,261115,,,A*47
$GPRMC,225758.400,A,3855.2329,N,07729.7719,W,25.98,297.13,261115,,,A*4D
$GPRMC,225758.600,A,3855.2335,N,07729.7735,W,25.27,297.47,261115,,,A*49
$GPRMC,225758.800,A,3855.2341,N,07729.7750,W,23.96,296.90,261115,,,A*40
$GPRMC,225759.000,A,3855.2346,N,07729.7765,W,23.18,296.64,261115,,,A*45
$GPRMC,225759.200,A,3855.2352,N,07729.7780,W,22.71,295.78,261115,,,A*49
$GPRMC,225759.400,A,3855.2357,N,07729.7794,W,21.54,296.22,261115,,,A*47
$GPRMC,225759.600,A,3855.2363,N,07729.7807,W,20.80,295.62,261115,,,A*48
$GPRMC,225759.800,A,3855.2368,N,07729.7820,W,19.32,295.88,261115,,,A*4F
$GPRMC,225800.000,A,3855.2373,N,07729.7832,W,18.38,296.06,261115,,,A*43
$GPRMC,225800.200,A,3855.2377,N,07729.7843,W,17.63,296.07,261115,,,A*43
$GPRMC,225800.400,A,3855.2381,N,07729.7854,W,16.74,296.39,261115,,,A*40
$GPRMC,225800.600,A,3855.2385,N,07729.7864,W,15.57,296.29,261115,,,A*46
$GPRMC,225800.800,A,3855.2389,N,07729.7873,W,14.54,296.26,261115,,,A*4F
$GPRMC,225801.000,A,3855.2392,N,07729.7881,W,13.59,296.62,261115,,,A*4B
$GPRMC,225801.200,A,3855.2396,N,07729.7889,W,12.33,297.12,261115,,,A*4E
$GPRMC,225801.400,A,3855.2398,N,07729.7896,W,11.37,297.28,261115,,,A*46
$GPRMC,225801.600,A,3855.2401,N,07729.7902,W,10.28,296.48,261115,,,A*47
$GPRMC,225801.800,A,3855.2403,N,07729.7909,W,9.36,297.06,261115,,,A*7C
$GPRMC,225802.000,A,3855.2405,N,07729.7915,W,8.54,297.19,261115,,,A*77
$GPRMC,225802.200,A,3855.2408,N,07729.7920,W,7.86,297.54,261115,,,A*77
$GPRMC,225802.400,A,3855.2410,N,07729.7925,W,7.28,296.37,261115,,,A*7D
$GPRMC,225802.600,A,3855.2411,N,07729.7929,W,6.79,294.87,261115,,,A*7E
$GPRMC,225802.800,A,3855.2413,N,07729.7933,W,6.42,294.75,261115,,,A*7C
$GPRMC,225803.000,A,3855.2414,N,07729.7936,W,5.83,294.72,261115,,,A*7E
$GPRMC,225803.200,A,3855.2415,N,07729.7939,W,4.69,296.37,261115,,,A*74
$GPRMC,225803.400,A,3855.2416,N,07729.7941,W,4.17,296.64,261115,,,A*71
$GPRMC,225803.600,A,3855.2417,N,07729.7943,W,3.49,299.26,261115,,,A*75
$GPRMC,225803.800,A,3855.2417,N,07729.7946,W,2.84,299.26,261115,,,A*7E
$GPRMC,225804.000,A,3855.2418,N,07729.7947,W,2.47,299.26,261115,,,A*70
$GPRMC,225804.200,A,3855.2418,N,07729.7950,W,2.30,299.26,261115,,,A*74
$GPRMC,225804.400,A,3855.2418,N,07729.7952,W,2.27,299.26,261115,,,A*76
$GPRMC,225804.600,A,3855.2418,N,07729.7953,W,2.20,299.26,261115,,,A*72
$GPRMC,225804.800,A,3855.2419,N,07729.7955,W,2.22,299.26,261115,,,A*79
$GPRMC,225805.000,A,3855.2419,N,07729.7957,W,2.55,299.26,261115,,,A*72
$GPRMC,225805.200,A,3855.2420,N,07729.7959,W,2.80,299.26,261115,,,A*7C
$GPRMC,225805.400,A,3855.2421,N,07729.7961,W,3.44,295.69,261115,,,A*7E
$GPRMC,225805.600,A,3855.2421,N,07729.7964,W,4.09,297.15,261115,,,A*7E
$GPRMC,225805.800,A,3855.2423,N,07729.7967,W,4.84,296.45,261115,,,A*70
$GPRMC,225806.000,A,3855.2424,N,07729.7970,W,5.53,297.08,261115,,,A*79
$GPRMC,225806.200,A,3855.2426,N,07729.7974,W,6.14,297.71,261115,,,A*73
$GPRMC,225806.400,A,3855.2427,N,07729.7978,W,7.00,296.59,261115,,,A*77
$GPRMC,225806.600,A,3855.2429,N,07729.7983,W,7.99,296.87,261115,,,A*7C
$GPRMC,225806.800,A,3855.2432,N,07729.7989,W,8.69,297.10,261115,,,A*7D
$GPRMC,225807.000,A,3855.2435,N,07729.7995,W,9.88,297.59,261115,,,A*7D
$GPRMC,225807.200,A,3855.2439,N,07729.8003,W,10.22,297.95,261115,,,A*42
$GPRMC,225807.400,A,3855.2442,N,07729.8010,W,10.94,298.61,261115,,,A*43
$GPRMC,225807.600,A,3855.2445,N,07729.8018,W,11.82,298.28,261115,,,A*45
$GPRMC,225807.800,A,3855.2449,N,07729.8028,W,14.49,297.27,261115,,,A*46
$GPRMC,225808.000,A,3855.2452,N,07729.8038,W,15.58,297.14,261115,,,A*4B
$GPRMC,225808.200,A,3855.2456,N,07729.8047,W,16.60,297.27,261115,,,A*4D
$GPRMC,225808.400,A,3855.2460,N,07729.8058,W,17.52,297.30,261115,,,A*46
$GPRMC,225808.600,A,3855.2465,N,07729.8068,W,18.28,297.05,261115,,,A*46
$GPRMC,225808.800,A,3855.2470,N,07729.8079,W,19.04,296.97,261115,,,A*49
$GPRMC,225809.000,A,3855.2474,N,07729.8091,W,19.71,296.64,261115,,,A*4C
$GPRMC,225809.200,A,3855.2480,N,07729.8103,W,20.38,296.70,261115,,,A*4D
$GPRMC,225809.400,A,3855.2485,N,07729.8116,W,21.30,296.91,261115,,,A*4C
$GPRMC,225809.600,A,3855.2490,N,07729.8129,W,21.94,296.36,261115,,,A*45
$GPRMC,225809.800,A,3855.2495,N,07729.8142,W,22.65,296.55,261115,,,A*4B
$GPRMC,225810.000,A,3855.2501,N,07729.8157,W,23.37,296.42,261115,,,A*43
$GPRMC,225810.200,A,3855.2506,N,07729.8172,W,24.00,296.43,261115,,,A*43
$GPRMC,225810.400,A,3855.2512,N,07729.8187,W,24.62,296.68,261115,,,A*47
$GPRMC,225810.600,A,3855.2518,N,07729.8203,W,25.03,296.21,261115,,,A*4B
$GPRMC,225810.800,A,3855.2524,N,07729.8219,W,25.61,296.69,261115,,,A*49
$GPRMC,225811.000,A,3855.2530,N,07729.8236,W,26.22,296.44,261115,,,A*43
$GPRMC,225811.200,A,3855.2537,N,07729.8253,W,26.80,296.41,261115,,,A*48
$GPRMC,225811.400,A,3855.2543,N,07729.8270,W,27.50,296.70,261115,,,A*42
$GPRMC,225811.600,A,3855.2550,N,07729.8287,W,28.03,296.40,261115,,,A*40
$GPRMC,225811.800,A,3855.2556,N,07729.8305,W,28.73,295.89,261115,,,A*42
$GPRMC,225812.000,A,3855.2563,N,07729.8324,W,29.51,296.37,261115,,,A*4B
$GPRMC,225812.200,A,3855.2571,N,07729.8343,W,30.07,296.20,261115,,,A*46
$GPRMC,225812.400,A,3855.2578,N,07729.8362,W,30.65,295.97,261115,,,A*41
$GPRMC,225812.600,A,3855.2586,N,07729.8382,W,31.33,296.20,261115,,,A*41
$GPRMC,225812.800,A,3855.2593,N,07729.8402,W,31.89,295.90,261115,,,A*4D
$GPRMC,225813.000,A,3855.2601,N,07729.8422,W,32.13,295.72,261115,,,A*42
$GPRMC,225813.200,A,3855.2608,N,07729.8442,W,32.10,295.88,261115,,,A*49
$GPRMC,225813.400,A,3855.2615,N,07729.8462,W,32.14,296.09,261115,,,A*4F
$GPRMC,225813.600,A,3855.2623,N,07729.8483,W,32.40,296.14,261115,,,A*4A
$GPRMC,225813.800,A,3855.2631,N,07729.8504,W,32.47,296.23,261115,,,A*4A
$GPRMC,225814.000,A,3855.2639,N,07729.8525,W,32.74,296.36,261115,,,A*4A
$GPRMC,225814.200,A,3855.2647,N,07729.8546,W,32.92,296.40,261115,,,A*4D
$GPRMC,225814.400,A,3855.2654,N,07729.8567,W,33.11,296.38,261115,,,A*4F
$GPRMC,225814.600,A,3855.2662,N,07729.8588,W,33.33,296.36,261115,,,A*47
$GPRMC,225814.800,A,3855.2670,N,07729.8610,W,33.50,296.43,261115,,,A*4F
$GPRMC,225815.000,A,3855.2679,N,07729.8632,W,33.82,296.42,261115,,,A*41
$GPRMC,225815.200,A,3855.2687,N,07729.8654,W,34.13,296.41,261115,,,A*4E
$GPRMC,225815.400,A,3855.2695,N,07729.8676,W,34.50,296.41,261115,,,A*4C
$GPRMC,225815.600,A,3855.2704,N,07729.8698,W,34.85,296.54,261115,,,A*4B
$GPRMC,225815.800,A,3855.2712,N,07729.8720,W,35.14,296.49,261115,,,A*45
$GPRMC,225816.000,A,3855.2721,N,07729.8743,W,35.54,296.46,261115,,,A*40
$GPRMC,225816.200,A,3855.2730,N,07729.8766,W,36.06,296.42,261115,,,A*45
$GPRMC,225816.400,A,3855.2739,N,07729.8789,W,36.39,296.69,261115,,,A*4E
$GPRMC,225816.600,A,3855.2748,N,07729.8813,W,36.75,296.79,261115,,,A*4F
$GPRMC,225816.800,A,3855.2757,N,07729.8836,W,36.97,296.71,261115,,,A*4C
$GPRMC,225817.000,A,3855.2766,N,07729.8860,W,37.11,296.74,261115,,,A*4E
$GPRMC,225817.200,A,3855.2776,N,07729.8884,W,37.29,296.77,261115,,,A*4F
$GPRMC,225817.400,A,3855.2785,N,07729.8909,W,37.41,296.79,261115,,,A*41
$GPRMC,225817.600,A,3855.2795,N,07729.8933,W,37.52,296.82,261115,,,A*4D
$GPRMC,225817.800,A,3855.2805,N,07729.8957,W,37.60,296.78,261115,,,A*43
$GPRMC,225818.000,A,3855.2815,N,07729.8981,W,37.68,296.76,261115,,,A*48
$GPRMC,225818.200,A,3855.2825,N,07729.9006,W,38.33,296.79,261115,,,A*40
$GPRMC,225818.400,A,3855.2834,N,07729.9031,W,38.36,296.78,261115,,,A*46
$GPRMC,225818.600,A,3855.2845,N,07729.9056,W,38.52,296.78,261115,,,A*41
$GPRMC,225818.800,A,3855.2855,N,07729.9081,W,38.58,296.77,261115,,,A*41
$GPRMC,225819.000,A,3855.2865,N,07729.9106,W,38.85,296.71,261115,,,A*43
$GPRMC,225819.200,A,3855.2874,N,07729.9132,W,38.90,296.66,261115,,,A*44
$GPRMC,225819.400,A,3855.2884,N,07729.9157,W,39.07,296.52,261115,,,A*46
$GPRMC,225819.600,A,3855.2894,N,07729.9183,W,39.06,296.46,261115,,,A*48
$GPRMC,225819.800,A,3855.2904,N,07729.9208,W,39.05,296.47,261115,,,A*4C
$GPRMC,225820.000,A,3855.2913,N,07729.9234,W,38.98,296.47,261115,,,A*42
$GPRMC,225820.200,A,3855.2923,N,07729.9259,W,38.94,296.36,261115,,,A*42
$GPRMC,225820.400,A,3855.2933,N,07729.9285,W,38.87,296.45,261115,,,A*42
$GPRMC,225820.600,A,3855.2942,N,07729.9310,W,38.70,296.55,261115,,,A*42
$GPRMC,225820.800,A,3855.2952,N,07729.9335,W,38.68,296.61,261115,,,A*44
$GPRMC,225821.000,A,3855.2962,N,07729.9361,W,38.64,296.75,261115,,,A*46
$GPRMC,225821.200,A,3855.2971,N,07729.9386,W,38.64,296.76,261115,,,A*4C
$GPRMC,225821.400,A,3855.2981,N,07729.9411,W,38.67,296.64,261115,,,A*4C
$GPRMC,225821.600,A,3855.2991,N,07729.9436,W,38.73,296.50,261115,,,A*48
$GPRMC,225821.800,A,3855.3000,N,07729.9461,W,38.74,296.48,261115,,,A*4A
$GPRMC,225822.000,A,3855.3010,N,07729.9486,W,38.80,296.53,261115,,,A*48
$GPRMC,225822.200,A,3855.3020,N,07729.9511,W,38.85,296.59,261115,,,A*49
$GPRMC,225822.400,A,3855.3031,N,07729.9536,W,38.90,296.63,261115,,,A*47
$GPRMC,225822.600,A,3855.3041,N,07729.9561,W,39.08,296.71,261115,,,A*43
$GPRMC,225822.800,A,3855.3051,N,07729.9585,W,39.10,296.72,261115,,,A*4C
$GPRMC,225823.000,A,3855.3061,N,07729.9610,W,39.30,296.65,261115,,,A*4D
$GPRMC,225823.200,A,3855.3071,N,07729.9636,W,39.48,296.57,261115,,,A*44
$GPRMC,225823.400,A,3855.3082,N,07729.9661,W,39.53,296.65,261115,,,A*47
$GPRMC,225823.600,A,3855.3092,N,07729.9686,W,39.60,296.91,261115,,,A*46
$GPRMC,225823.800,A,3855.3102,N,07729.9711,W,39.76,297.01,261115,,,A*40
$GPRMC,225824.000,A,3855.3112,N,07729.9736,W,39.84,297.02,261115,,,A*45
$GPRMC,225824.200,A,3855.3122,N,07729.9762,W,39.99,297.08,261115,,,A*43
$GPRMC,225824.400,A,3855.3133,N,07729.9787,W,40.16,297.26,261115,,,D*4E
$GPRMC,225824.600,A,3855.3143,N,07729.9813,W,40.21,297.25,261115,,,D*4E
$GPRMC,225824.800,A,3855.3153,N,07729.9839,W,40.25,297.49,261115,,,D*47
$GPRMC,225825.000,A,3855.3163,N,07729.9864,W,40.30,297.44,261115,,,D*4C
$GPRMC,225825.200,A,3855.3173,N,07729.9891,W,40.47,297.10,261115,,,D*44
$GPRMC,225825.400,A,3855.3183,N,07729.9917,W,40.50,297.05,261115,,,D*40
$GPRMC,225825.600,A,3855.3194,N,07729.9943,W,40.66,297.12,261115,,,D*46
$GPRMC,225825.800,A,3855.3204,N,07729.9969,W,40.73,297.02,261115,,,D*4F
$GPRMC,225826.000,A,3855.3214,N,07729.9996,W,40.96,296.81,261115,,,D*44
$GPRMC,225826.200,A,3855.3224,N,07730.0022,W,41.03,296.75,261115,,,D*44
$GPRMC,225826.400,A,3855.3234,N,07730.0048,W,41.23,296.86,261115,,,D*41
$GPRMC,225826.600,A,3855.3244,N,07730.0075,W,41.30,296.50,261115,,,D*43
$GPRMC,225826.800,A,3855.3254,N,07730.0101,W,41.47,296.32,261115,,,D*4A
$GPRMC,225827.000,A,3855.3265,N,07730.0128,W,41.71,296.37,261115,,,D*4A
$GPRMC,225827.200,A,3855.3275,N,07730.0155,W,41.78,296.42,261115,,,D*48
$GPRMC,225827.400,A,3855.3285,N,07730.0182,W,41.98,296.45,261115,,,D*42
$GPRMC,225827.600,A,3855.3295,N,07730.0209,W,42.25,296.66,261115,,,D*45
$GPRMC,225827.800,A,3855.3306,N,07730.0236,W,42.26,296.75,261115,,,D*4D
$GPRMC,225828.000,A,3855.3316,N,07730.0263,W,42.49,296.56,261115,,,D*43
$GPRMC,225828.200,A,3855.3326,N,07730.0290,W,42.55,296.44,261115,,,D*40
$GPRMC,225828.400,A,3855.3336,N,07730.0317,W,42.62,296.23,261115,,,D*4C
$GPRMC,225828.600,A,3855.3347,N,07730.0344,W,42.80,296.31,261115,,,D*41
$GPRMC,225828.800,A,3855.3358,N,07730.0371,W,42.80,296.73,261115,,,D*41
$GPRMC,225829.000,A,3855.3369,N,07730.0398,W,42.87,296.85,261115,,,D*43
$GPRMC,225829.200,A,3855.3379,N,07730.0425,W,42.88,296.71,261115,,,D*45
$GPRMC,225829.400,A,3855.3390,N,07730.0452,W,43.11,296.91,261115,,,D*4B
$GPRMC,225829.600,A,3855.3401,N,07730.0479,W,42.94,296.99,261115,,,D*4B
$GPRMC,225829.800,A,3855.3412,N,07730.0507,W,43.23,297.18,261115,,,D*4A
$GPRMC,225830.000,A,3855.3423,N,07730.0534,W,43.30,297.04,261115,,,D*47
$GPRMC,225830.200,A,3855.3433,N,07730.0562,W,43.36,297.02,261115,,,D*47
$GPRMC,225830.400,A,3855.3444,N,07730.0589,W,43.41,296.86,261115,,,D*49
$GPRMC,225830.600,A,3855.3455,N,07730.0617,W,43.49,296.96,261115,,,D*46
$GPRMC,225830.800,A,3855.3466,N,07730.0645,W,43.54,296.94,261115,,,D*41
$GPRMC,225831.000,A,3855.3477,N,07730.0673,W,43.59,296.96,261115,,,D*42
$GPRMC,225831.200,A,3855.3488,N,07730.0701,W,43.62,296.90,261115,,,D*4A
$GPRMC,225831.400,A,3855.3499,N,07730.0729,W,43.65,296.95,261115,,,D*44
$GPRMC,225831.600,A,3855.3510,N,07730.0757,W,43.87,297.07,261115,,,D*49
$GPRMC,225831.800,A,3855.3521,N,07730.0786,W,43.93,297.10,261115,,,D*4A
$GPRMC,225832.000,A,3855.3532,N,07730.0814,W,44.00,297.25,261115,,,D*4C
$GPRMC,225832.200,A,3855.3543,N,07730.0842,W,44.05,297.28,261115,,,D*43
$GPRMC,225832.400,A,3855.3554,N,07730.0871,W,44.08,297.25,261115,,,D*43
$GPRMC,225832.600,A,3855.3566,N,07730.0899,W,44.05,296.94,261115,,,D*40
$GPRMC,225832.800,A,3855.3576,N,07730.0928,W,44.09,296.83,261115,,,D*4E
$GPRMC,225833.000,A,3855.3587,N,07730.0956,W,44.07,296.80,261115,,,D*4D
$GPRMC,225833.200,A,3855.3598,N,07730.0984,W,44.03,296.70,261115,,,D*45
$GPRMC,225833.400,A,3855.3609,N,07730.1012,W,44.01,296.70,261115,,,D*4D
$GPRMC,225833.600,A,3855.3620,N,07730.1040,W,44.21,296.70,261115,,,D*41
$GPRMC,225833.800,A,3855.3631,N,07730.1069,W,44.24,296.75,261115,,,D*44
$GPRMC,225834.000,A,3855.3642,N,07730.1097,W,44.30,296.70,261115,,,D*4E
$GPRMC,225834.200,A,3855.3653,N,07730.1126,W,44.55,296.61,261115,,,D*44
$GPRMC,225834.400,A,3855.3664,N,07730.1154,W,44.71,296.62,261115,,,D*46
$GPRMC,225834.600,A,3855.3675,N,07730.1183,W,44.89,296.62,261115,,,D*49
$GPRMC,225834.800,A,3855.3686,N,07730.1212,W,44.90,296.58,261115,,,D*41
$GPRMC,225835.000,A,3855.3697,N,07730.1240,W,44.97,296.71,261115,,,D*43
$GPRMC,225835.200,A,3855.3709,N,07730.1269,W,45.07,296.94,261115,,,D*4F
$GPRMC,225835.400,A,3855.3721,N,07730.1298,W,45.12,296.91,261115,,,D*4C
$GPRMC,225835.600,A,3855.3732,N,07730.1327,W,45.18,296.85,261115,,,D*46
$GPRMC,225835.800,A,3855.3744,N,07730.1355,W,45.24,296.82,261115,,,D*44
$GPRMC,225836.000,A,3855.3755,N,07730.1384,W,45.91,296.84,261115,,,D*4B
$GPRMC,225836.200,A,3855.3767,N,07730.1414,W,45.98,296.84,261115,,,D*4F
$GPRMC,225836.400,A,3855.3779,N,07730.1443,W,46.21,296.94,261115,,,D*44
$GPRMC,225836.600,A,3855.3791,N,07730.1472,W,46.27,297.01,261115,,,D*49
$GPRMC,225836.800,A,3855.3802,N,07730.1501,W,46.46,296.93,261115,,,D*4A
$GPRMC,225837.000,A,3855.3814,N,07730.1531,W,46.54,296.89,261115,,,D*4F
$GPRMC,225837.200,A,3855.3826,N,07730.1560,W,46.71,296.91,261115,,,D*46
$GPRMC,225837.400,A,3855.3838,N,07730.1590,W,46.77,296.74,261115,,,D*4D
$GPRMC,225837.600,A,3855.3850,N,07730.1620,W,46.85,296.63,261115,,,D*42
$GPRMC,225837.800,A,3855.3862,N,07730.1650,W,47.02,296.62,261115,,,D*45
$GPRMC,225838.000,A,3855.3874,N,07730.1680,W,47.07,296.57,261115,,,D*4B
$GPRMC,225838.200,A,3855.3886,N,07730.1710,W,47.25,296.50,261115,,,D*4B
$GPRMC,225838.400,A,3855.3898,N,07730.1741,W,47.26,296.40,261115,,,D*44
$GPRMC,225838.600,A,3855.3909,N,07730.1771,W,47.28,296.32,261115,,,D*47
$GPRMC,225838.800,A,3855.3921,N,07730.1802,W,47.29,296.24,261115,,,D*4E
$GPRMC,225839.000,A,3855.3932,N,07730.1833,W,47.32,296.13,261115,,,D*49
$GPRMC,225839.200,A,3855.3944,N,07730.1863,W,47.39,296.08,261115,,,D*4E
$GPRMC,225839.400,A,3855.3955,N,07730.1894,W,47.43,296.03,261115,,,D*46
$GPRMC,225839.600,A,3855.3967,N,07730.1925,W,47.66,296.12,261115,,,D*49
$GPRMC,225839.800,A,3855.3978,N,07730.1956,W,47.68,296.10,261115,,,D*41
$GPRMC,225840.000,A,3855.3990,N,07730.1987,W,47.73,296.18,261115,,,D*4F
$GPRMC,225840.200,A,3855.4002,N,07730.2018,W,47.79,296.23,261115,,,D*46
$GPRMC,225840.400,A,3855.4014,N,07730.2049,W,47.84,296.21,261115,,,D*43
$GPRMC,225840.600,A,3855.4025,N,07730.2080,W,47.89,296.18,261115,,,D*41
$GPRMC,225840.800,A,3855.4037,N,07730.2111,W,47.92,296.18,261115,,,D*4F
$GPRMC,225841.000,A,3855.4049,N,07730.2142,W,47.96,296.21,261115,,,D*47
$GPRMC,225841.200,A,3855.4061,N,07730.2173,W,48.02,296.21,261115,,,D*4F
$GPRMC,225841.400,A,3855.4072,N,07730.2204,W,48.07,296.21,261115,,,D*4D
$GPRMC,225841.600,A,3855.4084,N,07730.2235,W,48.33,296.22,261115,,,D*40
$GPRMC,225841.800,A,3855.4096,N,07730.2267,W,48.39,296.29,261115,,,D*4B
$GPRMC,225842.000,A,3855.4108,N,07730.2298,W,48.62,296.41,261115,,,D*46
$GPRMC,225842.200,A,3855.4120,N,07730.2330,W,48.82,296.48,261115,,,D*4A
$GPRMC,225842.400,A,3855.4132,N,07730.2361,W,48.98,296.52,261115,,,D*4B
$GPRMC,225842.600,A,3855.4144,N,07730.2393,W,49.04,296.53,261115,,,D*40
$GPRMC,225842.800,A,3855.4157,N,07730.2425,W,49.09,296.55,261115,,,D*4D
$GPRMC,225843.000,A,3855.4169,N,07730.2457,W,49.11,296.67,261115,,,D*44
$GPRMC,225843.200,A,3855.4181,N,07730.2489,W,49.15,296.72,261115,,,D*43
$GPRMC,225843.400,A,3855.4193,N,07730.2520,W,49.35,296.70,261115,,,D*44
$GPRMC,225843.600,A,3855.4205,N,07730.2552,W,49.41,296.74,261115,,,D*48
$GPRMC,225843.800,A,3855.4218,N,07730.2584,W,49.58,296.70,261115,,,D*4D
$GPRMC,225844.000,A,3855.4230,N,07730.2616,W,49.82,296.77,261115,,,D*40
$GPRMC,225844.200,A,3855.4243,N,07730.2648,W,49.88,296.85,261115,,,D*4A
$GPRMC,225844.400,A,3855.4255,N,07730.2680,W,50.07,296.89,261115,,,D*4C
$GPRMC,225844.600,A,3855.4268,N,07730.2712,W,50.10,296.85,261115,,,D*40
$GPRMC,225844.800,A,3855.4280,N,07730.2745,W,50.15,296.75,261115,,,D*40
$GPRMC,225845.000,A,3855.4293,N,07730.2777,W,50.39,296.67,261115,,,D*47
$GPRMC,225845.200,A,3855.4305,N,07730.2810,W,50.61,296.61,261115,,,D*4E
$GPRMC,225845.400,A,3855.4318,N,07730.2842,W,50.66,296.82,261115,,,D*49
$GPRMC,225845.600,A,3855.4331,N,07730.2874,W,50.73,297.01,261115,,,D*4B
$GPRMC,225845.800,A,3855.4344,N,07730.2907,W,50.80,297.02,261115,,,D*4D
$GPRMC,225846.000,A,3855.4357,N,07730.2939,W,51.04,296.95,261115,,,D*4B
$GPRMC,225846.200,A,3855.4370,N,07730.2972,W,51.09,296.88,261115,,,D*42
$GPRMC,225846.400,A,3855.4383,N,07730.3004,W,51.25,296.92,261115,,,D*44
$GPRMC,225846.600,A,3855.4396,N,07730.3037,W,51.31,296.96,261115,,,D*43
$GPRMC,225846.800,A,3855.4409,N,07730.3069,W,51.38,296.98,261115,,,D*40
$GPRMC,225847.000,A,3855.4423,N,07730.3102,W,51.58,296.96,261115,,,D*45
$GPRMC,225847.200,A,3855.4436,N,07730.3134,W,51.62,297.02,261115,,,D*43
$GPRMC,225847.400,A,3855.4449,N,07730.3167,W,51.66,297.00,261115,,,D*4D
$GPRMC,225847.600,A,3855.4463,N,07730.3200,W,51.68,297.14,261115,,,D*4E
$GPRMC,225847.800,A,3855.4476,N,07730.3233,W,51.68,297.19,261115,,,D*49
$GPRMC,225848.000,A,3855.4489,N,07730.3266,W,51.70,297.20,261115,,,D*4D
$GPRMC,225848.200,A,3855.4503,N,07730.3299,W,51.71,297.25,261115,,,D*48
$GPRMC,225848.400,A,3855.4516,N,07730.3332,W,51.73,297.24,261115,,,D*49
$GPRMC,225848.600,A,3855.4529,N,07730.3365,W,51.74,297.22,261115,,,D*44
$GPRMC,225848.800,A,3855.4543,N,07730.3398,W,51.77,297.16,261115,,,D*40
$GPRMC,225849.000,A,3855.4556,N,07730.3431,W,51.77,296.99,261115,,,D*4F
$GPRMC,225849.200,A,3855.4569,N,07730.3465,W,51.76,296.84,261115,,,D*4D
$GPRMC,225849.400,A,3855.4583,N,07730.3499,W,51.74,296.77,261115,,,D*42
$GPRMC,225849.600,A,3855.4597,N,07730.3532,W,51.71,296.79,261115,,,D*4E
$GPRMC,225849.800,A,3855.4610,N,07730.3566,W,51.67,296.79,261115,,,D*4A
$GPRMC,225850.000,A,3855.4623,N,07730.3599,W,51.66,296.78,261115,,,D*4A
$GPRMC,225850.200,A,3855.4636,N,07730.3633,W,51.66,296.73,261115,,,D*44
$GPRMC,225850.400,A,3855.4650,N,07730.3666,W,51.66,296.79,261115,,,D*48
$GPRMC,225850.600,A,3855.4663,N,07730.3699,W,51.49,296.79,261115,,,D*47
$GPRMC,225850.800,A,3855.4675,N,07730.3732,W,51.41,296.83,261115,,,D*43
$GPRMC,225851.000,A,3855.4688,N,07730.3765,W,51.16,296.88,261115,,,D*43
$GPRMC,225851.200,A,3855.4701,N,07730.3797,W,51.08,296.98,261115,,,D*42
$GPRMC,225851.400,A,3855.4714,N,07730.3830,W,51.06,296.98,261115,,,D*4C
$GPRMC,225851.600,A,3855.4727,N,07730.3862,W,50.95,296.90,261115,,,D*4A
$GPRMC,225851.800,A,3855.4740,N,07730.3894,W,50.87,296.93,261115,,,D*4C
$GPRMC,225852.000,A,3855.4752,N,07730.3926,W,50.79,296.98,261115,,,D*46
$GPRMC,225852.200,A,3855.4765,N,07730.3959,W,50.39,297.02,261115,,,D*4E
$GPRMC,225852.400,A,3855.4778,N,07730.3991,W,50.33,297.00,261115,,,D*48
$GPRMC,225852.600,A,3855.4790,N,07730.4023,W,50.33,296.99,261115,,,D*4A
$GPRMC,225852.800,A,3855.4803,N,07730.4055,W,50.30,296.96,261115,,,D*4C
$GPRMC,225853.000,A,3855.4815,N,07730.4087,W,50.30,296.94,261115,,,D*4F
$GPRMC,225853.200,A,3855.4828,N,07730.4119,W,50.46,296.87,261115,,,D*46
$GPRMC,225853.400,A,3855.4841,N,07730.4152,W,50.47,296.76,261115,,,D*4F
$GPRMC,225853.600,A,3855.4853,N,07730.4184,W,50.46,296.57,261115,,,D*47
$GPRMC,225853.800,A,3855.4866,N,07730.4216,W,50.47,296.50,261115,,,D*41
$GPRMC,225854.000,A,3855.4878,N,07730.4248,W,50.42,296.42,261115,,,D*4C
$GPRMC,225854.200,A,3855.4891,N,07730.4281,W,50.38,296.41,261115,,,D*42
$GPRMC,225854.400,A,3855.4904,N,07730.4313,W,50.39,296.34,261115,,,D*40
$GPRMC,225854.600,A,3855.4916,N,07730.4346,W,50.41,296.37,261115,,,D*4D
$GPRMC,225854.800,A,3855.4929,N,07730.4378,W,50.59,296.42,261115,,,D*49
$GPRMC,225855.000,A,3855.4941,N,07730.4410,W,50.62,296.60,261115,,,D*4F
$GPRMC,225855.200,A,3855.4954,N,07730.4442,W,50.63,296.69,261115,,,D*46
$GPRMC,225855.400,A,3855.4967,N,07730.4475,W,50.62,296.75,261115,,,D*48
$GPRMC,225855.600,A,3855.4979,N,07730.4507,W,50.55,296.66,261115,,,D*47
$GPRMC,225855.800,A,3855.4992,N,07730.4538,W,50.30,296.60,261115,,,D*45
$GPRMC,225856.000,A,3855.5004,N,07730.4570,W,50.24,296.49,261115,,,D*4B
$GPRMC,225856.200,A,3855.5017,N,07730.4602,W,50.20,296.44,261115,,,D*44
$GPRMC,225856.400,A,3855.5030,N,07730.4634,W,50.19,296.55,261115,,,D*48
$GPRMC,225856.600,A,3855.5043,N,07730.4666,W,50.19,296.59,261115,,,D*45
$GPRMC,225856.800,A,3855.5056,N,07730.4698,W,50.23,296.62,261115,,,D*4F
$GPRMC,225857.000,A,3855.5069,N,07730.4730,W,50.24,296.61,261115,,,D*4D
$GPRMC,225857.200,A,3855.5081,N,07730.4762,W,50.28,296.77,261115,,,D*45
$GPRMC,225857.400,A,3855.5094,N,07730.4794,W,50.33,296.84,261115,,,D*48
$GPRMC,225857.600,A,3855.5108,N,07730.4825,W,50.39,296.99,261115,,,D*4D
$GPRMC,225857.800,A,3855.5121,N,07730.4857,W,50.44,297.02,261115,,,D*44
$GPRMC,225858.000,A,3855.5134,N,07730.4889,W,50.47,297.05,261115,,,D*40
$GPRMC,225858.200,A,3855.5147,N,07730.4921,W,50.49,297.17,261115,,,D*48
$GPRMC,225858.400,A,3855.5160,N,07730.4953,W,50.47,297.31,261115,,,D*44
$GPRMC,225858.600,A,3855.5173,N,07730.4984,W,50.25,297.33,261115,,,D*48
$GPRMC,225858.800,A,3855.5187,N,07730.5016,W,50.26,297.27,261115,,,D*48
$GPRMC,225859.000,A,3855.5200,N,07730.5048,W,50.21,297.27,261115,,,D*41
$GPRMC,225859.200,A,3855.5213,N,07730.5080,W,50.20,297.25,261115,,,D*46
$GPRMC,225859.400,A,3855.5226,N,07730.5111,W,50.22,297.26,261115,,,D*4E
$GPRMC,225859.600,A,3855.5239,N,07730.5143,W,50.17,297.26,261115,,,D*43
$GPRMC,225859.800,A,3855.5252,N,07730.5174,W,50.14,297.23,261115,,,D*42
$GPRMC,225900.000,A,3855.5265,N,07730.5206,W,50.12,297.27,261115,,,D*47
$GPRMC,225900.200,A,3855.5278,N,07730.5238,W,50.12,297.20,261115,,,D*43
$GPRMC,225900.400,A,3855.5291,N,07730.5270,W,50.13,297.07,261115,,,D*4A
$GPRMC,225900.600,A,3855.5304,N,07730.5302,W,50.29,296.90,261115,,,D*47
$GPRMC,225900.800,A,3855.5317,N,07730.5334,W,50.32,296.86,261115,,,D*43
$GPRMC,225901.000,A,3855.5330,N,07730.5367,W,50.34,296.76,261115,,,D*40
$GPRMC,225901.200,A,3855.5343,N,07730.5399,W,50.31,296.64,261115,,,D*41
$GPRMC,225901.400,A,3855.5356,N,07730.5431,W,50.28,296.66,261115,,,D*4C
$GPRMC,225901.600,A,3855.5368,N,07730.5463,W,50.29,296.80,261115,,,D*4D
$GPRMC,225901.800,A,3855.5381,N,07730.5495,W,50.26,296.88,261115,,,D*4A
$GPRMC,225902.000,A,3855.5394,N,07730.5528,W,50.24,296.86,261115,,,D*4E
$GPRMC,225902.200,A,3855.5407,N,07730.5560,W,50.26,296.83,261115,,,D*4A
$GPRMC,225902.400,A,3855.5420,N,07730.5592,W,50.27,296.96,261115,,,D*41
$GPRMC,225902.600,A,3855.5433,N,07730.5624,W,50.23,296.97,261115,,,D*4A
$GPRMC,225902.800,A,3855.5445,N,07730.5656,W,50.19,297.01,261115,,,D*47
$GPRMC,225903.000,A,3855.5458,N,07730.5688,W,50.02,296.92,261115,,,D*40
$GPRMC,225903.200,A,3855.5471,N,07730.5720,W,49.98,296.99,261115,,,D*4A
$GPRMC,225903.400,A,3855.5483,N,07730.5752,W,49.97,296.99,261115,,,D*4B
$GPRMC,225903.600,A,3855.5496,N,07730.5784,W,49.90,296.81,261115,,,D*48
$GPRMC,225903.800,A,3855.5508,N,07730.5816,W,49.85,296.77,261115,,,D*49
$GPRMC,225904.000,A,3855.5521,N,07730.5848,W,49.87,296.72,261115,,,D*41
$GPRMC,225904.200,A,3855.5533,N,07730.5880,W,49.87,296.62,261115,,,D*45
$GPRMC,225904.400,A,3855.5546,N,07730.5912,W,49.89,296.77,261115,,,D*41
$GPRMC,225904.600,A,3855.5558,N,07730.5944,W,49.91,296.93,261115,,,D*4C
$GPRMC,225904.800,A,3855.5571,N,07730.5976,W,49.92,297.10,261115,,,D*41
$GPRMC,225905.000,A,3855.5584,N,07730.6008,W,49.92,297.34,261115,,,D*47
$GPRMC,225905.200,A,3855.5597,N,07730.6039,W,49.93,297.58,261115,,,D*4E
$GPRMC,225905.400,A,3855.5610,N,07730.6071,W,49.98,297.67,261115,,,D*4F
$GPRMC,225905.600,A,3855.5622,N,07730.6103,W,50.03,297.55,261115,,,D*43
$GPRMC,225905.800,A,3855.5635,N,07730.6135,W,50.08,297.55,261115,,,D*45
$GPRMC,225906.000,A,3855.5648,N,07730.6167,W,50.26,297.54,261115,,,D*4E
$GPRMC,225906.200,A,3855.5661,N,07730.6199,W,50.31,297.59,261115,,,D*4D
$GPRMC,225906.400,A,3855.5674,N,07730.6231,W,50.35,297.53,261115,,,D*40
$GPRMC,225906.600,A,3855.5687,N,07730.6263,W,50.42,297.61,261115,,,D*48
$GPRMC,225906.800,A,3855.5701,N,07730.6294,W,50.58,297.57,261115,,,D*4F
$GPRMC,225907.000,A,3855.5714,N,07730.6326,W,50.58,297.57,261115,,,D*4A
$GPRMC,225907.200,A,3855.5727,N,07730.6358,W,50.62,297.72,261115,,,D*4F
$GPRMC,225907.400,A,3855.5740,N,07730.6390,W,50.69,297.72,261115,,,D*47
$GPRMC,225907.600,A,3855.5753,N,07730.6422,W,50.73,297.72,261115,,,D*42
$GPRMC,225907.800,A,3855.5766,N,07730.6453,W,50.76,297.68,261115,,,D*42
$GPRMC,225908.000,A,3855.5779,N,07730.6485,W,50.80,297.71,261115,,,D*41
$GPRMC,225908.200,A,3855.5792,N,07730.6517,W,50.82,297.65,261115,,,D*4B
$GPRMC,225908.400,A,3855.5806,N,07730.6549,W,50.85,297.57,261115,,,D*42
$GPRMC,225908.600,A,3855.5819,N,07730.6581,W,50.90,297.57,261115,,,D*4E
$GPRMC,225908.800,A,3855.5832,N,07730.6613,W,50.94,297.57,261115,,,D*45
$GPRMC,225909.000,A,3855.5845,N,07730.6644,W,50.98,297.54,261115,,,D*41
$GPRMC,225909.200,A,3855.5858,N,07730.6676,W,51.03,297.53,261115,,,D*4A
$GPRMC,225909.400,A,3855.5871,N,07730.6708,W,51.19,297.46,261115,,,D*40
$GPRMC,225909.600,A,3855.5884,N,07730.6741,W,51.19,297.30,261115,,,D*44
$GPRMC,225909.800,A,3855.5898,N,07730.6773,W,51.15,297.27,261115,,,D*4C
$GPRMC,225910.000,A,3855.5910,N,07730.6805,W,51.14,297.31,261115,,,D*45
$GPRMC,225910.200,A,3855.5923,N,07730.6837,W,51.12,297.24,261115,,,D*44
$GPRMC,225910.400,A,3855.5936,N,07730.6869,W,51.06,297.17,261115,,,D*48
$GPRMC,225910.600,A,3855.5949,N,07730.6901,W,51.02,297.16,261115,,,D*48
$GPRMC,225910.800,A,3855.5962,N,07730.6933,W,50.98,297.15,261115,,,D*4F
$GPRMC,225911.000,A,3855.5975,N,07730.6965,W,50.94,297.18,261115,,,D*42
$GPRMC,225911.200,A,3855.5988,N,07730.6997,W,50.92,297.36,261115,,,D*45
$GPRMC,225911.400,A,3855.6002,N,07730.7029,W,50.89,297.53,261115,,,D*4F
$GPRMC,225911.600,A,3855.6015,N,07730.7061,W,50.86,297.65,261115,,,D*4D
$GPRMC,225911.800,A,3855.6028,N,07730.7092,W,50.84,297.61,261115,,,D*47
$GPRMC,225912.000,A,3855.6041,N,07730.7124,W,50.86,297.58,261115,,,D*47
$GPRMC,225912.200,A,3855.6054,N,07730.7156,W,51.04,297.61,261115,,,D*45
$GPRMC,225912.400,A,3855.6067,N,07730.7188,W,51.01,297.51,261115,,,D*46
$GPRMC,225912.600,A,3855.6080,N,07730.7220,W,50.99,297.46,261115,,,D*4A
$GPRMC,225912.800,A,3855.6094,N,07730.7252,W,50.99,297.39,261115,,,D*4C
$GPRMC,225913.000,A,3855.6107,N,07730.7284,W,51.04,297.31,261115,,,D*48
$GPRMC,225913.200,A,3855.6120,N,07730.7316,W,51.08,297.29,261115,,,D*40
$GPRMC,225913.400,A,3855.6133,N,07730.7348,W,51.10,297.21,261115,,,D*4E
$GPRMC,225913.600,A,3855.6147,N,07730.7380,W,51.15,297.23,261115,,,D*4C
$GPRMC,225913.800,A,3855.6160,N,07730.7412,W,51.20,297.23,261115,,,D*4D
$GPRMC,225914.000,A,3855.6173,N,07730.7444,W,51.23,297.14,261115,,,D*44
$GPRMC,225914.200,A,3855.6186,N,07730.7476,W,51.26,297.06,261115,,,D*4B
$GPRMC,225914.400,A,3855.6199,N,07730.7508,W,51.28,297.02,261115,,,D*41
$GPRMC,225914.600,A,3855.6212,N,07730.7541,W,51.30,297.08,261115,,,D*4D
$GPRMC,225914.800,A,3855.6225,N,07730.7573,W,51.31,297.11,261115,,,D*4F
$GPRMC,225915.000,A,3855.6238,N,07730.7605,W,51.30,297.14,261115,,,D*4C
$GPRMC,225915.200,A,3855.6251,N,07730.7638,W,51.26,297.12,261115,,,D*4E
$GPRMC,225915.400,A,3855.6264,N,07730.7670,W,51.23,297.10,261115,,,D*45
$GPRMC,225915.600,A,3855.6277,N,07730.7702,W,51.21,297.10,261115,,,D*43
$GPRMC,225915.800,A,3855.6290,N,07730.7735,W,51.21,297.06,261115,,,D*47
$GPRMC,225916.000,A,3855.6303,N,07730.7767,W,51.22,297.01,261115,,,D*44
$GPRMC,225916.200,A,3855.6315,N,07730.7800,W,51.21,297.06,261115,,,D*4B
$GPRMC,225916.400,A,3855.6328,N,07730.7832,W,51.19,297.25,261115,,,D*48
$GPRMC,225916.600,A,3855.6341,N,07730.7864,W,51.19,297.27,261115,,,D*44
$GPRMC,225916.800,A,3855.6354,N,07730.7897,W,51.19,297.30,261115,,,D*44
$GPRMC,225917.000,A,3855.6367,N,07730.7929,W,51.19,297.26,261115,,,D*4E
$GPRMC,225917.200,A,3855.6380,N,07730.7962,W,51.18,297.19,261115,,,D*47
$GPRMC,225917.400,A,3855.6393,N,07730.7995,W,51.19,297.11,261115,,,D*42
$GPRMC,225917.600,A,3855.6406,N,07730.8028,W,51.21,297.12,261115,,,D*43
$GPRMC,225917.800,A,3855.6419,N,07730.8060,W,51.23,297.10,261115,,,D*4F
$GPRMC,225918.000,A,3855.6432,N,07730.8093,W,51.26,297.03,261115,,,D*4A
$GPRMC,225918.200,A,3855.6445,N,07730.8126,W,51.28,296.92,261115,,,D*40
$GPRMC,225918.400,A,3855.6458,N,07730.8159,W,51.27,296.85,261115,,,D*4B
$GPRMC,225918.600,A,3855.6471,N,07730.8192,W,51.24,296.72,261115,,,D*4E
$GPRMC,225918.800,A,3855.6483,N,07730.8225,W,51.19,296.63,261115,,,D*4C
$GPRMC,225919.000,A,3855.6496,N,07730.8258,W,51.00,296.57,261115,,,D*44
$GPRMC,225919.200,A,3855.6508,N,07730.8291,W,50.95,296.54,261115,,,D*4B
$GPRMC,225919.400,A,3855.6521,N,07730.8324,W,50.79,296.61,261115,,,D*4D
$GPRMC,225919.600,A,3855.6534,N,07730.8356,W,50.72,296.70,261115,,,D*45
$GPRMC,225919.800,A,3855.6546,N,07730.8389,W,50.67,296.70,261115,,,D*48
$GPRMC,225920.000,A,3855.6559,N,07730.8422,W,50.46,296.71,261115,,,D*40
$GPRMC,225920.200,A,3855.6571,N,07730.8454,W,50.45,296.72,261115,,,D*49
$GPRMC,225920.400,A,3855.6584,N,07730.8486,W,50.28,296.63,261115,,,D*41
$GPRMC,225920.600,A,3855.6596,N,07730.8519,W,50.06,296.59,261115,,,D*42
$GPRMC,225920.800,A,3855.6609,N,07730.8551,W,50.00,296.54,261115,,,D*4E
$GPRMC,225921.000,A,3855.6621,N,07730.8583,W,49.79,296.53,261115,,,D*43
$GPRMC,225921.200,A,3855.6634,N,07730.8615,W,49.63,296.56,261115,,,D*47
$GPRMC,225921.400,A,3855.6646,N,07730.8647,W,49.55,296.71,261115,,,D*43
$GPRMC,225921.600,A,3855.6658,N,07730.8679,W,49.27,296.67,261115,,,D*41
$GPRMC,225921.800,A,3855.6670,N,07730.8710,W,49.20,296.69,261115,,,D*42
$GPRMC,225922.000,A,3855.6683,N,07730.8741,W,48.95,296.69,261115,,,D*4E
$GPRMC,225922.200,A,3855.6695,N,07730.8773,W,48.73,296.63,261115,,,D*48
$GPRMC,225922.400,A,3855.6707,N,07730.8804,W,48.48,296.64,261115,,,D*44
$GPRMC,225922.600,A,3855.6718,N,07730.8835,W,48.27,296.70,261115,,,D*46
$GPRMC,225922.800,A,3855.6730,N,07730.8865,W,48.09,296.76,261115,,,D*4D
$GPRMC,225923.000,A,3855.6742,N,07730.8896,W,47.82,296.83,261115,,,D*4B
$GPRMC,225923.200,A,3855.6754,N,07730.8926,W,47.81,296.90,261115,,,D*45
$GPRMC,225923.400,A,3855.6766,N,07730.8956,W,47.68,296.77,261115,,,D*4B
$GPRMC,225923.600,A,3855.6777,N,07730.8986,W,47.57,296.69,261115,,,D*47
$GPRMC,225923.800,A,3855.6789,N,07730.9017,W,47.48,296.75,261115,,,D*4B
$GPRMC,225924.000,A,3855.6801,N,07730.9046,W,47.40,296.74,261115,,,D*46
$GPRMC,225924.200,A,3855.6812,N,07730.9076,W,47.32,296.70,261115,,,D*44
$GPRMC,225924.400,A,3855.6823,N,07730.9106,W,47.19,296.66,261115,,,D*48
$GPRMC,225924.600,A,3855.6835,N,07730.9135,W,47.07,296.60,261115,,,D*44
$GPRMC,225924.800,A,3855.6846,N,07730.9165,W,46.94,296.58,261115,,,D*4B
$GPRMC,225925.000,A,3855.6857,N,07730.9194,W,46.80,296.47,261115,,,D*47
$GPRMC,225925.200,A,3855.6868,N,07730.9223,W,45.29,296.23,261115,,,D*44
$GPRMC,225925.400,A,3855.6879,N,07730.9252,W,45.05,296.17,261115,,,D*4D
$GPRMC,225925.600,A,3855.6890,N,07730.9281,W,44.98,296.17,261115,,,D*43
$GPRMC,225925.800,A,3855.6901,N,07730.9310,W,44.91,296.19,261115,,,D*4A
$GPRMC,225926.000,A,3855.6912,N,07730.9339,W,44.70,296.11,261115,,,D*4F
$GPRMC,225926.200,A,3855.6923,N,07730.9367,W,44.67,296.23,261115,,,D*43
$GPRMC,225926.400,A,3855.6934,N,07730.9396,W,44.48,296.31,261115,,,D*43
$GPRMC,225926.600,A,3855.6945,N,07730.9424,W,44.41,296.31,261115,,,D*40
$GPRMC,225926.800,A,3855.6956,N,07730.9453,W,44.35,296.37,261115,,,D*49
$GPRMC,225927.000,A,3855.6967,N,07730.9481,W,44.29,296.39,261115,,,D*4E
$GPRMC,225927.200,A,3855.6978,N,07730.9509,W,44.23,296.36,261115,,,D*46
$GPRMC,225927.400,A,3855.6988,N,07730.9537,W,44.16,296.07,261115,,,D*46
$GPRMC,225927.600,A,3855.6999,N,07730.9565,W,44.12,296.10,261115,,,D*41
$GPRMC,225927.800,A,3855.7010,N,07730.9593,W,43.59,296.28,261115,,,D*4C
$GPRMC,225928.000,A,3855.7021,N,07730.9620,W,43.58,296.38,261115,,,D*42
$GPRMC,225928.200,A,3855.7031,N,07730.9648,W,43.53,296.38,261115,,,D*44
$GPRMC,225928.400,A,3855.7042,N,07730.9675,W,43.37,296.46,261115,,,D*43
$GPRMC,225928.600,A,3855.7053,N,07730.9703,W,43.32,296.44,261115,,,D*46
$GPRMC,225928.800,A,3855.7064,N,07730.9730,W,43.25,296.53,261115,,,D*4C
$GPRMC,225929.000,A,3855.7075,N,07730.9757,W,43.22,296.62,261115,,,D*41
$GPRMC,225929.200,A,3855.7085,N,07730.9783,W,42.70,296.68,261115,,,D*49
$GPRMC,225929.400,A,3855.7096,N,07730.9810,W,42.46,296.76,261115,,,D*42
$GPRMC,225929.600,A,3855.7106,N,07730.9836,W,42.27,296.88,261115,,,D*4A
$GPRMC,225929.800,A,3855.7117,N,07730.9863,W,42.26,296.99,261115,,,D*45
$GPRMC,225930.000,A,3855.7128,N,07730.9889,W,42.20,297.13,261115,,,D*48
$GPRMC,225930.200,A,3855.7138,N,07730.9915,W,42.02,297.02,261115,,,D*4F
$GPRMC,225930.400,A,3855.7149,N,07730.9941,W,41.71,296.84,261115,,,D*46
$GPRMC,225930.600,A,3855.7159,N,07730.9967,W,41.50,296.43,261115,,,D*49
$GPRMC,225930.800,A,3855.7169,N,07730.9993,W,41.45,296.23,261115,,,D*4D
$GPRMC,225931.000,A,3855.7179,N,07731.0019,W,41.20,295.66,261115,,,D*47
$GPRMC,225931.200,A,3855.7189,N,07731.0044,W,40.99,295.13,261115,,,D*43
$GPRMC,225931.400,A,3855.7198,N,07731.0070,W,40.82,294.60,261115,,,D*4D
$GPRMC,225931.600,A,3855.7208,N,07731.0096,W,40.64,294.07,261115,,,D*44
$GPRMC,225931.800,A,3855.7217,N,07731.0122,W,40.60,293.77,261115,,,D*4E
$GPRMC,225932.000,A,3855.7226,N,07731.0147,W,40.33,293.30,261115,,,D*41
$GPRMC,225932.200,A,3855.7234,N,07731.0173,W,40.14,292.97,261115,,,D*4E
$GPRMC,225932.400,A,3855.7243,N,07731.0199,W,39.99,292.67,261115,,,D*48
$GPRMC,225932.600,A,3855.7251,N,07731.0224,W,39.75,292.33,261115,,,D*4F
$GPRMC,225932.800,A,3855.7259,N,07731.0250,W,39.71,292.19,261115,,,D*46
$GPRMC,225933.000,A,3855.7267,N,07731.0275,W,39.51,291.78,261115,,,D*43
$GPRMC,225933.200,A,3855.7275,N,07731.0301,W,39.23,291.64,261115,,,D*48
$GPRMC,225933.400,A,3855.7283,N,07731.0326,W,38.99,291.34,261115,,,D*47
$GPRMC,225933.600,A,3855.7290,N,07731.0352,W,38.93,291.06,261115,,,D*4F
$GPRMC,225933.800,A,3855.7298,N,07731.0377,W,38.70,291.05,261115,,,D*40
$GPRMC,225934.000,A,3855.7306,N,07731.0402,W,38.63,291.05,261115,,,D*4E
$GPRMC,225934.200,A,3855.7314,N,07731.0427,W,38.54,292.11,261115,,,D*4A
$GPRMC,225934.400,A,3855.7322,N,07731.0452,W,38.44,292.36,261115,,,D*4F
$GPRMC,225934.600,A,3855.7329,N,07731.0476,W,37.09,292.47,261115,,,D*40
$GPRMC,225934.800,A,3855.7337,N,07731.0500,W,36.48,292.44,261115,,,D*46
$GPRMC,225935.000,A,3855.7345,N,07731.0523,W,35.73,292.45,261115,,,D*41
$GPRMC,225935.200,A,3855.7352,N,07731.0546,W,34.83,292.87,261115,,,D*46
$GPRMC,225935.400,A,3855.7359,N,07731.0568,W,34.12,293.18,261115,,,D*48
$GPRMC,225935.600,A,3855.7367,N,07731.0589,W,33.25,293.64,261115,,,D*40
$GPRMC,225935.800,A,3855.7374,N,07731.0611,W,32.70,293.80,261115,,,D*45
$GPRMC,225936.000,A,3855.7381,N,07731.0632,W,31.87,294.14,261115,,,D*44
$GPRMC,225936.200,A,3855.7389,N,07731.0652,W,31.14,294.63,261115,,,D*42
$GPRMC,225936.400,A,3855.7396,N,07731.0672,W,30.44,294.62,261115,,,D*4D
$GPRMC,225936.600,A,3855.7402,N,07731.0691,W,29.34,294.74,261115,,,D*40
$GPRMC,225936.800,A,3855.7409,N,07731.0709,W,28.48,294.80,261115,,,D*44
$GPRMC,225937.000,A,3855.7415,N,07731.0728,W,27.70,295.13,261115,,,D*4C
$GPRMC,225937.200,A,3855.7421,N,07731.0745,W,26.77,294.88,261115,,,D*47
$GPRMC,225937.400,A,3855.7428,N,07731.0762,W,25.80,295.06,261115,,,D*41
$GPRMC,225937.600,A,3855.7433,N,07731.0779,W,24.97,294.92,261115,,,D*48
$GPRMC,225937.800,A,3855.7439,N,07731.0795,W,24.07,294.98,261115,,,D*4D
$GPRMC,225938.000,A,3855.7444,N,07731.0810,W,23.03,295.38,261115,,,D*4A
$GPRMC,225938.200,A,3855.7450,N,07731.0824,W,21.98,295.23,261115,,,D*40
$GPRMC,225938.400,A,3855.7454,N,07731.0838,W,21.02,295.35,261115,,,D*4B
$GPRMC,225938.600,A,3855.7459,N,07731.0851,W,20.13,295.57,261115,,,D*4E
$GPRMC,225938.800,A,3855.7464,N,07731.0864,W,19.16,295.28,261115,,,D*4F
$GPRMC,225939.000,A,3855.7468,N,07731.0876,W,18.52,295.63,261115,,,D*47
$GPRMC,225939.200,A,3855.7472,N,07731.0887,W,17.86,296.08,261115,,,D*48
$GPRMC,225939.400,A,3855.7477,N,07731.0898,W,17.19,296.23,261115,,,D*4A
$GPRMC,225939.600,A,3855.7481,N,07731.0909,W,16.60,295.89,261115,,,D*44
$GPRMC,225939.800,A,3855.7484,N,07731.0918,W,15.86,296.06,261115,,,D*40
$GPRMC,225940.000,A,3855.7487,N,07731.0928,W,15.59,295.68,261115,,,D*4F
$GPRMC,225940.200,A,3855.7491,N,07731.0937,W,15.00,295.89,261115,,,D*47
$GPRMC,225940.400,A,3855.7494,N,07731.0946,W,14.21,296.33,261115,,,D*42
$GPRMC,225940.600,A,3855.7498,N,07731.0954,W,13.77,295.98,261115,,,D*49
$GPRMC,225940.800,A,3855.7501,N,07731.0962,W,12.99,296.67,261115,,,D*41
$GPRMC,225941.000,A,3855.7504,N,07731.0970,W,12.42,296.50,261115,,,D*4C
$GPRMC,225941.200,A,3855.7507,N,07731.0978,W,12.16,296.07,261115,,,D*46
$GPRMC,225941.400,A,3855.7510,N,07731.0985,W,11.81,296.38,261115,,,D*45
$GPRMC,225941.600,A,3855.7512,N,07731.0992,W,11.37,296.22,261115,,,D*45
$GPRMC,225941.800,A,3855.7514,N,07731.0999,W,11.31,296.15,261115,,,D*44
$GPRMC,225942.000,A,3855.7517,N,07731.1006,W,11.06,296.13,261115,,,D*40
$GPRMC,225942.200,A,3855.7519,N,07731.1013,W,10.90,296.09,261115,,,D*4D
$GPRMC,225942.400,A,3855.7521,N,07731.1020,W,10.82,296.00,261115,,,D*4A
$GPRMC,225942.600,A,3855.7523,N,07731.1027,W,10.55,296.11,261115,,,D*47
$GPRMC,225942.800,A,3855.7526,N,07731.1033,W,10.38,296.35,261115,,,D*44
$GPRMC,225943.000,A,3855.7528,N,07731.1039,W,10.07,296.73,261115,,,D*47
$GPRMC,225943.200,A,3855.7530,N,07731.1045,W,9.78,296.87,261115,,,D*7C
$GPRMC,225943.400,A,3855.7532,N,07731.1050,W,9.42,296.98,261115,,,D*7B
$GPRMC,225943.600,A,3855.7534,N,07731.1056,W,9.13,297.26,261115,,,D*79
$GPRMC,225943.800,A,3855.7536,N,07731.1061,W,8.94,297.26,261115,,,D*7F
$GPRMC,225944.000,A,3855.7538,N,07731.1066,W,8.56,297.06,261115,,,D*75
$GPRMC,225944.200,A,3855.7539,N,07731.1071,W,8.30,296.43,261115,,,D*70
$GPRMC,225944.400,A,3855.7541,N,07731.1076,W,7.98,296.42,261115,,,D*72
$GPRMC,225944.600,A,3855.7543,N,07731.1081,W,7.68,295.99,261115,,,D*70
$GPRMC,225944.800,A,3855.7544,N,07731.1086,W,7.44,295.86,261115,,,D*7E
$GPRMC,225945.000,A,3855.7546,N,07731.1090,W,7.01,295.77,261115,,,D*7D
$GPRMC,225945.200,A,3855.7547,N,07731.1093,W,6.56,294.95,261115,,,D*73
$GPRMC,225945.400,A,3855.7548,N,07731.1097,W,5.98,293.99,261115,,,D*74
$GPRMC,225945.600,A,3855.7550,N,07731.1100,W,5.49,293.55,261115,,,D*7C
$GPRMC,225945.800,A,3855.7550,N,07731.1103,W,4.97,293.13,261115,,,D*71
$GPRMC,225946.000,A,3855.7550,N,07731.1102,W,4.02,292.34,261115,,,D*73
$GPRMC,225946.200,A,3855.7550,N,07731.1100,W,3.09,291.35,261115,,,D*7D
$GPRMC,225946.400,A,3855.7550,N,07731.1101,W,2.23,291.35,261115,,,D*73
$GPRMC,225946.600,A,3855.7550,N,07731.1101,W,1.51,291.35,261115,,,D*77
$GPRMC,225946.800,A,3855.7550,N,07731.1102,W,1.09,291.35,261115,,,D*77
$GPRMC,225947.000,A,3855.7550,N,07731.1102,W,0.61,291.35,261115,,,D*71
$GPRMC,225947.200,A,3855.7550,N,07731.1102,W,0.37,291.35,261115,,,D*70
$GPRMC,225947.400,A,3855.7550,N,07731.1101,W,0.31,291.35,261115,,,D*73
$GPRMC,225947.600,A,3855.7550,N,07731.1101,W,0.29,291.35,261115,,,D*78
$GPRMC,225947.800,A,3855.7550,N,07731.1100,W,0.29,291.35,261115,,,D*77
$GPRMC,225948.000,A,3855.7550,N,07731.1099,W,0.31,291.35,261115,,,D*78
$GPRMC,225948.200,A,3855.7550,N,07731.1098,W,0.36,291.35,261115,,,D*7C
$GPRMC,225948.400,A,3855.7549,N,07731.1097,W,0.38,291.35,261115,,,D*73
$GPRMC,225948.600,A,3855.7549,N,07731.1096,W,0.44,291.35,261115,,,D*7B
$GPRMC,225948.800,A,3855.7550,N,07731.1095,W,0.48,291.35,261115,,,D*72
$GPRMC,225949.000,A,3855.7550,N,07731.1094,W,0.51,291.35,261115,,,D*72
$GPRMC,225949.200,A,3855.7550,N,07731.1093,W,0.53,291.35,261115,,,D*75
$GPRMC,225949.400,A,3855.7550,N,07731.1092,W,0.54,141.09,261115,,,D*74
$GPRMC,225949.600,A,3855.7550,N,07731.1091,W,0.54,142.62,261115,,,D*7B
$GPRMC,225949.800,A,3855.7550,N,07731.1090,W,0.54,142.55,261115,,,D*70
$GPRMC,225950.000,A,3855.7550,N,07731.1090,W,0.48,141.95,261115,,,D*72
$GPRMC,225950.200,A,3855.7549,N,07731.1090,W,0.44,141.68,261115,,,D*76
$GPRMC,225950.400,A,3855.7549,N,07731.1089,W,0.42,140.80,261115,,,D*79
$GPRMC,225950.600,A,3855.7549,N,07731.1089,W,0.38,140.67,261115,,,D*7F
$GPRMC,225950.800,A,3855.7549,N,07731.1089,W,0.37,140.49,261115,,,D*72
$GPRMC,225951.000,A,3855.7549,N,07731.1089,W,0.33,140.27,261115,,,D*77
$GPRMC,225951.200,A,3855.7549,N,07731.1089,W,0.29,139.97,261115,,,D*7B
$GPRMC,225951.400,A,3855.7548,N,07731.1089,W,0.26,139.57,261115,,,D*7F
$GPRMC,225951.600,A,3855.7548,N,07731.1088,W,0.24,139.10,261115,,,D*7D
$GPRMC,225951.800,A,3855.7548,N,07731.1088,W,0.23,138.73,261115,,,D*70
$GPRMC,225952.000,A,3855.7548,N,07731.1088,W,0.18,138.52,261115,,,D*70
$GPRMC,225952.200,A,3855.7548,N,07731.1088,W,0.13,138.49,261115,,,D*73
$GPRMC,225952.400,A,3855.7548,N,07731.1088,W,0.05,138.64,261115,,,D*7D
$GPRMC,225952.600,A,3855.7548,N,07731.1088,W,0.10,138.99,261115,,,D*79
$GPRMC,225952.800,A,3855.7548,N,07731.1088,W,0.25,139.94,261115,,,D*7D
$GPRMC,225953.000,A,3855.7548,N,07731.1088,W,0.53,141.97,261115,,,D*79
$GPRMC,225953.200,A,3855.7548,N,07731.1089,W,0.93,302.48,261115,,,D*71
$GPRMC,225953.400,A,3855.7549,N,07731.1089,W,1.52,303.61,261115,,,D*70
$GPRMC,225953.600,A,3855.7549,N,07731.1090,W,3.52,305.60,261115,,,D*7F
$GPRMC,225953.800,A,3855.7551,N,07731.1094,W,4.58,302.59,261115,,,D*7C
$GPRMC,225954.000,A,3855.7554,N,07731.1103,W,6.97,300.50,261115,,,D*73
$GPRMC,225954.200,A,3855.7557,N,07731.1111,W,8.02,300.63,261115,,,D*73
$GPRMC,225954.400,A,3855.7561,N,07731.1120,W,9.38,300.03,261115,,,D*7C
$GPRMC,225954.600,A,3855.7564,N,07731.1129,W,10.61,298.09,261115,,,D*4C
$GPRMC,225954.800,A,3855.7567,N,07731.1137,W,11.25,298.26,261115,,,D*42
$GPRMC,225955.000,A,3855.7571,N,07731.1147,W,12.39,298.49,261115,,,D*4C
$GPRMC,225955.200,A,3855.7575,N,07731.1157,W,13.29,297.12,261115,,,D*4A
$GPRMC,225955.400,A,3855.7579,N,07731.1168,W,13.98,296.40,261115,,,D*40
$GPRMC,225955.600,A,3855.7583,N,07731.1180,W,14.54,295.29,261115,,,D*4A
$GPRMC,225955.800,A,3855.7587,N,07731.1190,W,14.80,294.75,261115,,,D*40
$GPRMC,225956.000,A,3855.7591,N,07731.1201,W,15.23,294.08,261115,,,D*45
$GPRMC,225956.200,A,3855.7594,N,07731.1213,W,15.80,291.97,261115,,,D*4B
$GPRMC,225956.400,A,3855.7597,N,07731.1225,W,16.30,290.30,261115,,,D*4F
$GPRMC,225956.600,A,3855.7600,N,07731.1238,W,16.66,287.94,261115,,,D*47
$GPRMC,225956.800,A,3855.7601,N,07731.1251,W,16.83,287.02,261115,,,D*43
$GPRMC,225957.000,A,3855.7603,N,07731.1263,W,17.01,285.32,261115,,,D*43
$GPRMC,225957.200,A,3855.7605,N,07731.1276,W,17.02,283.66,261115,,,D*47
$GPRMC,225957.400,A,3855.7606,N,07731.1289,W,17.22,280.67,261115,,,D*42
$GPRMC,225957.600,A,3855.7606,N,07731.1303,W,17.28,277.17,261115,,,D*46
$GPRMC,225957.800,A,3855.7606,N,07731.1316,W,17.23,275.16,261115,,,D*44
$GPRMC,225958.000,A,3855.7606,N,07731.1328,W,16.76,272.64,261115,,,D*4D
$GPRMC,225958.200,A,3855.7606,N,07731.1341,W,16.45,270.21,261115,,,D*43
$GPRMC,225958.400,A,3855.7606,N,07731.1353,W,15.96,267.60,261115,,,D*48
$GPRMC,225958.600,A,3855.7604,N,07731.1364,W,15.63,264.16,261115,,,D*44
$GPRMC,225958.800,A,3855.7602,N,07731.1376,W,15.56,261.96,261115,,,D*44
$GPRMC,225959.000,A,3855.7600,N,07731.1387,W,15.08,257.19,261115,,,D*48
$GPRMC,225959.200,A,3855.7596,N,07731.1397,W,14.77,251.44,261115,,,D*40
$GPRMC,225959.400,A,3855.7592,N,07731.1408,W,14.74,246.84,261115,,,D*4A
$GPRMC,225959.600,A,3855.7587,N,07731.1419,W,14.71,242.11,261115,,,D*41
$GPRMC,225959.800,A,3855.7582,N,07731.1429,W,14.71,240.05,261115,,,D*4E
$GPRMC,230000.000,A,3855.7577,N,07731.1438,W,14.75,237.25,261115,,,D*4B
$GPRMC,230000.200,A,3855.7570,N,07731.1452,W,14.94,232.04,261115,,,D*4B
$GPRMC,230000.400,A,3855.7562,N,07731.1464,W,15.22,228.60,261115,,,D*4E
$GPRMC,230000.600,A,3855.7554,N,07731.1474,W,15.56,225.75,261115,,,D*42
$GPRMC,230000.800,A,3855.7547,N,07731.1483,W,15.82,224.32,261115,,,D*4D
$GPRMC,230001.000,A,3855.7540,N,07731.1492,W,16.22,223.06,261115,,,D*4A
$GPRMC,230001.200,A,3855.7532,N,07731.1499,W,16.47,219.58,261115,,,D*47
$GPRMC,230001.400,A,3855.7522,N,07731.1505,W,16.89,213.20,261115,,,D*43
$GPRMC,230001.600,A,3855.7513,N,07731.1511,W,17.40,210.03,261115,,,D*40
$GPRMC,230001.800,A,3855.7504,N,07731.1518,W,17.70,207.93,261115,,,D*4D
$GPRMC,230002.000,A,3855.7494,N,07731.1523,W,18.23,204.07,261115,,,D*41
$GPRMC,230002.200,A,3855.7483,N,07731.1528,W,18.79,201.13,261115,,,D*41
$GPRMC,230002.400,A,3855.7472,N,07731.1532,W,19.33,198.84,261115,,,D*40
$GPRMC,230002.600,A,3855.7460,N,07731.1537,W,19.99,197.49,261115,,,D*4A
$GPRMC,230002.800,A,3855.7447,N,07731.1542,W,20.48,196.76,261115,,,D*48
$GPRMC,230003.000,A,3855.7435,N,07731.1546,W,21.05,196.06,261115,,,D*4F
$GPRMC,230003.200,A,3855.7422,N,07731.1551,W,21.60,195.69,261115,,,D*44
$GPRMC,230003.400,A,3855.7409,N,07731.1555,W,22.20,195.00,261115,,,D*47
$GPRMC,230003.600,A,3855.7395,N,07731.1560,W,22.83,194.57,261115,,,D*4B
$GPRMC,230003.800,A,3855.7382,N,07731.1564,W,23.35,194.24,261115,,,D*4F
$GPRMC,230004.000,A,3855.7368,N,07731.1568,W,23.99,193.73,261115,,,D*4B
$GPRMC,230004.200,A,3855.7354,N,07731.1572,W,24.74,193.39,261115,,,D*47
$GPRMC,230004.400,A,3855.7339,N,07731.1575,W,25.57,193.22,261115,,,D*47
$GPRMC,230004.600,A,3855.7324,N,07731.1579,W,26.29,193.29,261115,,,D*44
$GPRMC,230004.800,A,3855.7309,N,07731.1583,W,26.75,193.33,261115,,,D*42
$GPRMC,230005.000,A,3855.7293,N,07731.1587,W,27.54,193.43,261115,,,D*48
$GPRMC,230005.200,A,3855.7278,N,07731.1592,W,28.10,193.64,261115,,,D*41
$GPRMC,230005.400,A,3855.7262,N,07731.1597,W,28.34,194.19,261115,,,D*42
$GPRMC,230005.600,A,3855.7247,N,07731.1602,W,28.73,194.67,261115,,,D*42
$GPRMC,230005.800,A,3855.7231,N,07731.1608,W,28.94,195.05,261115,,,D*4B
